[{"id":"gaia-1","name":"chitakale - ntiza","type":"gaia","lat":-15.9852112,"lng":35.4011992},{"id":"gaia-2","name":"chitakale - chimwaza","type":"gaia","lat":-16.0256605,"lng":35.5077756},{"id":"gaia-3","name":"chitakale - namangolo","type":"gaia","lat":-16.1214738,"lng":35.5850741},{"id":"gaia-4","name":"chitakale - chikuse","type":"gaia","lat":-16.1202222,"lng":35.6110683},{"id":"gaia-5","name":"chitakale - machokola","type":"gaia","lat":-16.1084536,"lng":35.4328876},{"id":"gaia-6","name":"mangochi1 - thukululu","type":"gaia","lat":-14.2613957,"lng":35.0002659},{"id":"gaia-7","name":"mangochi1 - mbeya","type":"gaia","lat":-14.1178324,"lng":34.8687357},{"id":"gaia-8","name":"mangochi1 - kanyenga","type":"gaia","lat":-14.3152582,"lng":34.958007},{"id":"gaia-9","name":"mangochi1 - mponda","type":"gaia","lat":-14.2713709,"lng":34.8849556},{"id":"gaia-10","name":"mangochi1 - sosola","type":"gaia","lat":-14.4244421,"lng":34.7890777},{"id":"gaia-11","name":"mangochi2 - mtola","type":"gaia","lat":-14.2988082,"lng":34.915485},{"id":"gaia-12","name":"mangochi2 - chibvuu_2","type":"gaia","lat":-14.3796044,"lng":34.9448583},{"id":"gaia-13","name":"mangochi2 - kela","type":"gaia","lat":-14.418461,"lng":34.8318359},{"id":"gaia-14","name":"mangochi2 - mdala_chikowa","type":"gaia","lat":-14.2507069,"lng":35.0827851},{"id":"gaia-15","name":"mangochi2 - chididi","type":"gaia","lat":-14.2909829,"lng":35.0080172},{"id":"gaia-16","name":"nkanda - mwanakhu","type":"gaia","lat":-16.0126896,"lng":35.4906873},{"id":"gaia-17","name":"nkanda - kabuthu","type":"gaia","lat":-15.8067394,"lng":35.3754987},{"id":"gaia-18","name":"nkanda - mbewa","type":"gaia","lat":-15.9495636,"lng":35.4872092},{"id":"gaia-19","name":"nkanda - sadibwa","type":"gaia","lat":-15.8177283,"lng":35.5240067},{"id":"gaia-20","name":"nkanda - chikonde","type":"gaia","lat":-15.8648715,"lng":35.4406535},{"id":"gaia-21","name":"phalombe1 - nambera","type":"gaia","lat":-15.6069095,"lng":35.7737254},{"id":"gaia-22","name":"phalombe1 - likhonyowa","type":"gaia","lat":-15.6345768,"lng":35.6859223},{"id":"gaia-23","name":"phalombe1 - nambiti","type":"gaia","lat":-15.8027367,"lng":35.763805},{"id":"gaia-24","name":"phalombe1 - chiwalo","type":"gaia","lat":-15.5830247,"lng":35.7640143},{"id":"gaia-25","name":"phalombe1 - mwambeni","type":"gaia","lat":-15.6314142,"lng":35.5544804},{"id":"gaia-26","name":"phalombe2 - chimbalanga","type":"gaia","lat":-15.5295476,"lng":35.7842487},{"id":"gaia-27","name":"phalombe2 - miseu_4","type":"gaia","lat":-15.6694033,"lng":35.5084019},{"id":"gaia-28","name":"phalombe2 - njovu","type":"gaia","lat":-15.5287801,"lng":35.6483971},{"id":"gaia-29","name":"phalombe2 - mulambe","type":"gaia","lat":-15.6301753,"lng":35.7831448},{"id":"gaia-30","name":"phalombe2 - kanula","type":"gaia","lat":-15.8080507,"lng":35.5745831},{"id":"gaia-31","name":"phalombe3 - mpata","type":"gaia","lat":-15.8379969,"lng":35.6936489},{"id":"gaia-32","name":"thanzi - tiputipu","type":"gaia","lat":-14.5298597,"lng":34.7958032},{"id":"gaia-33","name":"thanzi - juma_mbanga","type":"gaia","lat":-14.4568147,"lng":34.8343897},{"id":"gaia-34","name":"thanzi - sokole","type":"gaia","lat":-14.4694203,"lng":34.7913558},{"id":"gaia-35","name":"thanzi - mbape","type":"gaia","lat":-14.3186408,"lng":34.8133736},{"id":"gaia-36","name":"thanzi - mtonda","type":"gaia","lat":-14.2788233,"lng":35.0963717},{"id":"mhfr-LL040007","name":"ABC Clinic","type":"cham","lat":-13.96816,"lng":33.74129,"district":"Lilongwe"},{"id":"mhfr-LL040011","name":"Adventist Health Centre","type":"cham","lat":-13.95473,"lng":33.7793,"district":"Lilongwe"},{"id":"mhfr-LL040012","name":"Adventist","type":"cham","lat":-13.95473,"lng":33.7793,"district":"Lilongwe"},{"id":"mhfr-ZA230015","name":"Airwing","type":"govt","lat":-15.38876,"lng":35.38508,"district":"Zomba"},{"id":"mhfr-LL040016","name":"Airwing","type":"govt","lat":-13.96162,"lng":33.69679,"district":"Lilongwe"},{"id":"mhfr-NK100019","name":"Alinafe","type":"cham","lat":-13.38789,"lng":34.24292,"district":"Nkhotakota"},{"id":"mhfr-TH310026","name":"Amalika","type":"govt","lat":-15.99203,"lng":35.03183,"district":"Thyolo"},{"id":"mhfr-BT240028","name":"AMECA (Chilaweni)","type":"govt","lat":-15.703336,"lng":35.04442,"district":"Blantyre"},{"id":"mhfr-KU070030","name":"Anchor Farm","type":"govt","lat":-13.41,"lng":33.39,"district":"Kasungu"},{"id":"mhfr-KU070031","name":"Anchor Health Centre","type":"govt","lat":-13.414103,"lng":33.39074,"district":"Kasungu"},{"id":"mhfr-BT240032","name":"Aquid Lifeline Clinic","type":"govt","lat":-15.62217,"lng":35.05604,"district":"Blantyre"},{"id":"mhfr-LL040033","name":"Area 18","type":"govt","lat":-13.94131,"lng":33.78051,"district":"Lilongwe"},{"id":"mhfr-LL040036","name":"Banja la mtsogolo","type":"govt","lat":-13.89488,"lng":33.76206,"district":"Lilongwe"},{"id":"mhfr-LL040037","name":"Area 25","type":"govt","lat":-13.89272,"lng":33.77465,"district":"Lilongwe"},{"id":"mhfr-KA150046","name":"Atupele","type":"cham","lat":-9.73682,"lng":33.83744,"district":"Karonga"},{"id":"mhfr-BK170052","name":"Balaka Banja La Mtsogolo clinic","type":"govt","lat":-14.98876,"lng":34.95557,"district":"Balaka"},{"id":"mhfr-BK170053","name":"Balaka District Hospital","type":"govt","lat":-14.98498,"lng":34.94959,"district":"Balaka"},{"id":"mhfr-BK170054","name":"Dream Clinic","type":"cham","lat":-15.00322,"lng":34.95248,"district":"Balaka"},{"id":"mhfr-BT240059","name":"Bangwe","type":"govt","lat":-15.823832,"lng":35.080477,"district":"Blantyre"},{"id":"mhfr-CP060062","name":"Banja la Mtsogolo","type":"govt","lat":-15.3890539,"lng":35.320048,"district":"Chitipa"},{"id":"mhfr-SA090064","name":"Baptist health centre","type":"cham","lat":-13.73887,"lng":34.59749,"district":"Salima"},{"id":"mhfr-NT120065","name":"Bayani","type":"govt","lat":-15.1729008,"lng":34.6966684,"district":"Ntcheu"},{"id":"mhfr-LL040066","name":"Baylor","type":"govt","lat":-13.977985,"lng":33.786847,"district":"Lilongwe"},{"id":"mhfr-BT240068","name":"Beit Cure","type":"govt","lat":-15.80354,"lng":35.01753,"district":"Blantyre"},{"id":"mhfr-CK270069","name":"Bereu","type":"govt","lat":-16.15199,"lng":34.85376,"district":"Chikwawa"},{"id":"mhfr-DE030072","name":"Bembeke","type":"cham","lat":-14.35825,"lng":34.42432,"district":"Dedza"},{"id":"mhfr-NK100073","name":"Chipatala cha boma","type":"govt","lat":-13.36846,"lng":34.27404,"district":"Nkhotakota"},{"id":"mhfr-NT120080","name":"Bilila","type":"govt","lat":-14.82489,"lng":34.85134,"district":"Ntcheu"},{"id":"mhfr-NT120081","name":"Biliwiri","type":"govt","lat":-14.817,"lng":34.638306,"district":"Ntcheu"},{"id":"mhfr-MG200082","name":"Billy Riordan clinic","type":"govt","lat":-14.0319916,"lng":34.8402186,"district":"Mangochi"},{"id":"mhfr-ZA230083","name":"Bimbi","type":"govt","lat":-15.30876,"lng":35.4794,"district":"Zomba"},{"id":"mhfr-BT240085","name":"City assembly","type":"govt","lat":-15.8,"lng":35.04,"district":"Blantyre"},{"id":"mhfr-BT240087","name":"Blantyre Dream Project (Mandala)","type":"govt","lat":-15.79182,"lng":35.01273,"district":"Blantyre"},{"id":"mhfr-LL040091","name":"Blessings","type":"cham","lat":-13.79099,"lng":33.81707,"district":"Lilongwe"},{"id":"mhfr-TH310093","name":"Banja la mtsogolo","type":"govt","lat":-15.93133,"lng":35.08213,"district":"Thyolo"},{"id":"mhfr-LL040094","name":"Banja la mtsogolo","type":"govt","lat":-13.99646,"lng":33.77897,"district":"Lilongwe"},{"id":"mhfr-LL040095","name":"Kawale Banja la mtsogolo","type":"govt","lat":-13.9915,"lng":33.79514,"district":"Lilongwe"},{"id":"mhfr-BT240097","name":"BLM Lunzu","type":"govt","lat":-15.65114,"lng":35.02028,"district":"Blantyre"},{"id":"mhfr-DA020100","name":"Banja la Mtsogolo","type":"govt","lat":-13.53197,"lng":33.73802,"district":"Dowa"},{"id":"mhfr-MZ160101","name":"BLM","type":"govt","lat":-11.89882,"lng":33.59402,"district":"Mzimba"},{"id":"mhfr-MZ160102","name":"BLM","type":"govt","lat":-11.45612,"lng":34.01638,"district":"Mzimba"},{"id":"mhfr-NT120103","name":"Ntcheu BLM","type":"govt","lat":-14.81394,"lng":34.63512,"district":"Ntcheu"},{"id":"mhfr-BT240104","name":"Banja Lamtsogolo","type":"govt","lat":-15.8,"lng":35,"district":"Blantyre"},{"id":"mhfr-BT240105","name":"BLM Zingwangwa Clinic","type":"govt","lat":-15.81847,"lng":35.01171,"district":"Blantyre"},{"id":"mhfr-RU140107","name":"Bolero hospital","type":"govt","lat":-10.97843,"lng":33.74342,"district":"Rumphi"},{"id":"mhfr-MU210108","name":"Bondo health center","type":"govt","lat":-16.04267,"lng":35.61388,"district":"Mulanje"},{"id":"mhfr-DA020111","name":"Bowe","type":"govt","lat":-13.27878,"lng":33.68392,"district":"Dowa"},{"id":"mhfr-KU070113","name":"Bua","type":"govt","lat":-13.29403,"lng":33.53859,"district":"Kasungu"},{"id":"mhfr-NK100114","name":"Bua","type":"govt","lat":-12.7967,"lng":34.20971,"district":"Nkhotakota"},{"id":"mhfr-KB050115","name":"Bula","type":"govt","lat":-11.22268,"lng":34.12324,"district":"Nkhata Bay"},{"id":"mhfr-MZ160116","name":"Bulala","type":"govt","lat":-11.6781,"lng":33.44798,"district":"Mzimba"},{"id":"mhfr-TH310121","name":"Research","type":"govt","lat":-15.93981,"lng":35.02633,"district":"Thyolo"},{"id":"mhfr-LL040122","name":"Bottom","type":"govt","lat":-13.99164,"lng":33.77561,"district":"Lilongwe"},{"id":"mhfr-NT120123","name":"Bwanje","type":"govt","lat":-14.64857,"lng":34.77445,"district":"Ntcheu"},{"id":"mhfr-MZ160124","name":"Bwengu","type":"govt","lat":-11.06356,"lng":33.91646,"district":"Mzimba"},{"id":"mhfr-BT240136","name":"Chabvala","type":"govt","lat":-15.83372,"lng":34.83461,"district":"Blantyre"},{"id":"mhfr-LL040137","name":"Chadza","type":"govt","lat":-14.14715,"lng":33.84167,"district":"Lilongwe"},{"id":"mhfr-MZ160138","name":"Chagoma","type":"govt","lat":-11.214085,"lng":33.807507,"district":"Mzimba"},{"id":"mhfr-SA090139","name":"Tembwe","type":"govt","lat":-13.88028,"lng":34.36721,"district":"Salima"},{"id":"mhfr-DA020140","name":"Chakhaza","type":"govt","lat":-13.44421,"lng":33.64676,"district":"Dowa"},{"id":"mhfr-KU070142","name":"Vision","type":"govt","lat":-12.924306,"lng":33.776861,"district":"Kasungu"},{"id":"mhfr-MC190143","name":"Chamba","type":"govt","lat":-15.20234,"lng":35.42137,"district":"Machinga"},{"id":"mhfr-ZA230144","name":"Chamba","type":"govt","lat":-15.46571,"lng":35.51662,"district":"Zomba"},{"id":"mhfr-MU210145","name":"Chambe Health Centre","type":"govt","lat":-16.071315,"lng":35.482338,"district":"Mulanje"},{"id":"mhfr-CP060146","name":"Chambo","type":"cham","lat":-9.94361,"lng":33.39795,"district":"Chitipa"},{"id":"mhfr-NT120147","name":"Champiti","type":"govt","lat":-14.90241,"lng":34.73185,"district":"Ntcheu"},{"id":"mhfr-KU070148","name":"Chamwabvi","type":"govt","lat":-13.10757,"lng":33.68528,"district":"Kasungu"},{"id":"mhfr-CK270150","name":"Chang'ambika","type":"govt","lat":-15.80301,"lng":34.30928,"district":"Chikwawa"},{"id":"mhfr-ZA230151","name":"Changalume","type":"govt","lat":-15.3896,"lng":35.21184,"district":"Zomba"},{"id":"mhfr-TH310152","name":"Changata","type":"govt","lat":-16.078196,"lng":35.061008,"district":"Thyolo"},{"id":"mhfr-DA020153","name":"Chankhungu","type":"govt","lat":-13.76492,"lng":34.01471,"district":"Dowa"},{"id":"mhfr-CK270155","name":"Mkadana","type":"govt","lat":-16.00551,"lng":34.48567,"district":"Chikwawa"},{"id":"mhfr-CK270157","name":"Chipwaila Health Centre","type":"govt","lat":-16.39842,"lng":34.77572,"district":"Chikwawa"},{"id":"mhfr-MC190159","name":"Chapusa","type":"govt","lat":-14.94175,"lng":35.613673,"district":"Machinga"},{"id":"mhfr-CP060163","name":"Chendo","type":"govt","lat":-9.882464,"lng":33.410688,"district":"Chitipa"},{"id":"mhfr-KB050164","name":"Chesamu","type":"govt","lat":-11.85422,"lng":34.01836,"district":"Nkhata Bay"},{"id":"mhfr-DA020166","name":"Chezi Mission Hospital","type":"cham","lat":-13.65,"lng":34.04,"district":"Dowa"},{"id":"mhfr-MU210168","name":"Chibathi","type":"cham","lat":-16.0712505,"lng":35.4823584,"district":"Mulanje"},{"id":"mhfr-BT240170","name":"Chichiri Prison Clinic","type":"govt","lat":-15.80577,"lng":35.03242,"district":"Blantyre"},{"id":"mhfr-NK100171","name":"Chididi","type":"cham","lat":-13.08573,"lng":34.31474,"district":"Nkhotakota"},{"id":"mhfr-NS300172","name":"Chididi","type":"cham","lat":-16.91495,"lng":35.17333,"district":"Nsanje"},{"id":"mhfr-BK170173","name":"chiendausiku","type":"govt","lat":-15.01855,"lng":35.07653,"district":"Balaka"},{"id":"mhfr-NE290176","name":"Chifunga Health center","type":"govt","lat":-15.59825,"lng":34.69892,"district":"Neno"},{"id":"mhfr-NT120178","name":"Chigodi","type":"cham","lat":-14.49194,"lng":34.54126,"district":"Ntcheu"},{"id":"mhfr-BT240180","name":"Chigumula Clinic","type":"govt","lat":-15.89,"lng":35.06,"district":"Blantyre"},{"id":"mhfr-KA150181","name":"Chihepusha","type":"govt","lat":-10.332331,"lng":34.110642,"district":"Karonga"},{"id":"mhfr-NT120182","name":"Chikande","type":"govt","lat":-14.77261,"lng":34.90768,"district":"Ntcheu"},{"id":"mhfr-MZ160184","name":"Chikangawa","type":"govt","lat":-11.843327,"lng":33.8007455,"district":"Mzimba"},{"id":"mhfr-MG200185","name":"Chikole","type":"govt","lat":-14.422,"lng":35.38427,"district":"Mangochi"},{"id":"mhfr-NT120186","name":"Chikowa","type":"govt","lat":-14.959023,"lng":34.720362,"district":"Ntcheu"},{"id":"mhfr-BT240187","name":"Chikowa","type":"govt","lat":-15.67133,"lng":34.87172,"district":"Blantyre"},{"id":"mhfr-LL040188","name":"Chizu","type":"govt","lat":-13.72929,"lng":33.45821,"district":"Lilongwe"},{"id":"mhfr-DE030191","name":"Chikuse","type":"govt","lat":-14.15069,"lng":34.31881,"district":"Dedza"},{"id":"mhfr-KA150192","name":"Chikutu","type":"govt","lat":-9.774048,"lng":33.734621,"district":"Karonga"},{"id":"mhfr-CK270193","name":"Chikwawa","type":"govt","lat":-16.0234699,"lng":34.79346,"district":"Chikwawa"},{"id":"mhfr-MC190194","name":"Chikweo","type":"govt","lat":-14.7655,"lng":35.66691,"district":"Machinga"},{"id":"mhfr-KB050195","name":"Chikwina","type":"govt","lat":-11.39694,"lng":34.16973,"district":"Nkhata Bay"},{"id":"mhfr-KB050197","name":"Chilambwe","type":"cham","lat":-11.69114,"lng":34.31617,"district":"Nkhata Bay"},{"id":"mhfr-LL040200","name":"Child Legacy (Mkanga)","type":"cham","lat":-14.0685264,"lng":33.472115,"district":"Lilongwe"},{"id":"mhfr-BT240202","name":"Chileka","type":"govt","lat":-15.682466,"lng":34.970663,"district":"Blantyre"},{"id":"mhfr-LL040203","name":"Chileka","type":"govt","lat":-14.02102,"lng":33.38544,"district":"Lilongwe"},{"id":"mhfr-BT240204","name":"Malamulo","type":"cham","lat":-15.65986,"lng":34.92904,"district":"Blantyre"},{"id":"mhfr-TH310205","name":"Chilengo","type":"govt","lat":-16.136105,"lng":35.015899,"district":"Thyolo"},{"id":"mhfr-BT240207","name":"Chirimba","type":"govt","lat":-15.746368,"lng":35.022984,"district":"Blantyre"},{"id":"mhfr-RU140208","name":"Chilinda clinic","type":"govt","lat":-10.59101,"lng":33.80605,"district":"Rumphi"},{"id":"mhfr-LL040209","name":"Chilinde","type":"govt","lat":-13.99587,"lng":33.81026,"district":"Lilongwe"},{"id":"mhfr-MG200211","name":"Chilipa","type":"govt","lat":-14.6996,"lng":34.9732,"district":"Mangochi"},{"id":"mhfr-ZA230212","name":"Chilipa","type":"cham","lat":-15.32447,"lng":35.11715,"district":"Zomba"},{"id":"mhfr-LL040214","name":"Chilobwe","type":"govt","lat":-13.85467,"lng":33.37439,"district":"Lilongwe"},{"id":"mhfr-BT240216","name":"Chilomoni","type":"govt","lat":-15.77128,"lng":34.98156,"district":"Blantyre"},{"id":"mhfr-MG200218","name":"Chilonga","type":"govt","lat":-14.4672204,"lng":34.8711754,"district":"Mangochi"},{"id":"mhfr-MZ160219","name":"Chilukwa","type":"cham","lat":-11.286936,"lng":33.821297,"district":"Mzimba"},{"id":"mhfr-KA150220","name":"Chilumba Barracks","type":"govt","lat":-10.39021,"lng":34.20897,"district":"Karonga"},{"id":"mhfr-KA150221","name":"Jetty","type":"govt","lat":-10.43199,"lng":34.25193,"district":"Karonga"},{"id":"mhfr-TH310222","name":"Chimaliro Health Centre","type":"govt","lat":-15.97706,"lng":35.18162,"district":"Thyolo"},{"id":"mhfr-BK170224","name":"Chimatiro","type":"govt","lat":-14.962681,"lng":35.023092,"district":"Balaka"},{"id":"mhfr-LL040225","name":"Chitekwere","type":"govt","lat":-13.9358,"lng":34.12567,"district":"Lilongwe"},{"id":"mhfr-MC190226","name":"Chimbira","type":"govt","lat":-14.601369,"lng":35.805155,"district":"Machinga"},{"id":"mhfr-BT240227","name":"Chimembe","type":"govt","lat":-15.77733,"lng":34.88548,"district":"Blantyre"},{"id":"mhfr-DE030228","name":"Chimoto","type":"govt","lat":-14.44268,"lng":34.01021,"district":"Dedza"},{"id":"mhfr-TH310230","name":"Chimvu","type":"govt","lat":-15.94198,"lng":35.12308,"district":"Thyolo"},{"id":"mhfr-LL040231","name":"Chimwala Health Centre","type":"cham","lat":-14.05121,"lng":33.79419,"district":"Lilongwe"},{"id":"mhfr-MC010232","name":"Chimwankango","type":"govt","lat":-13.40461,"lng":32.99357,"district":"Mchinji"},{"id":"mhfr-ZA230235","name":"Maseko","type":"cham","lat":-15.3816,"lng":35.35584,"district":"Zomba"},{"id":"mhfr-NS300236","name":"Ching'oma ","type":"govt","lat":-16.999306,"lng":35.109333,"district":"Nsanje"},{"id":"mhfr-TH310237","name":"Chingadzi Hospital","type":"cham","lat":-15.91842,"lng":35.20595,"district":"Thyolo"},{"id":"mhfr-ZA230238","name":"Chingale","type":"govt","lat":-15.39694,"lng":35.1808,"district":"Zomba"},{"id":"mhfr-NT080239","name":"Chinguluwe","type":"govt","lat":-13.2614988,"lng":33.868625,"district":"Ntchisi"},{"id":"mhfr-SA090240","name":"Chinguluwe","type":"govt","lat":-13.66454,"lng":34.38503,"district":"Salima"},{"id":"mhfr-ZA230241","name":"Chinguma","type":"govt","lat":-15.230167,"lng":35.800284,"district":"Zomba"},{"id":"mhfr-DA020243","name":"Chinkhwiri","type":"govt","lat":-13.38557,"lng":33.72106,"district":"Dowa"},{"id":"mhfr-CP060245","name":"Chinsasu","type":"govt","lat":-9.68485,"lng":33.41856,"district":"Chitipa"},{"id":"mhfr-KB050246","name":"Chintheche","type":"govt","lat":-11.82719,"lng":34.16836,"district":"Nkhata Bay"},{"id":"mhfr-NT080247","name":"Chinthembwe","type":"cham","lat":-13.43326,"lng":33.97527,"district":"Ntchisi"},{"id":"mhfr-KU070248","name":"Chinyama","type":"govt","lat":-12.974524,"lng":33.797009,"district":"Kasungu"},{"id":"mhfr-MU210249","name":"Chinyama Health Centre","type":"govt","lat":-16.1565351,"lng":35.3409743,"district":"Mulanje"},{"id":"mhfr-MC010251","name":"Chioshya","type":"govt","lat":-13.79586,"lng":33.17534,"district":"Mchinji"},{"id":"mhfr-TH310252","name":"Chipho","type":"cham","lat":-16.171528,"lng":35.110222,"district":"Thyolo"},{"id":"mhfr-ZA230254","name":"Chipini","type":"cham","lat":-15.39007,"lng":35.09531,"district":"Zomba"},{"id":"mhfr-SA090255","name":"Chipoka","type":"govt","lat":-13.98973,"lng":34.51545,"district":"Salima"},{"id":"mhfr-MG200257","name":"Chiponde","type":"govt","lat":-14.373385,"lng":35.60143,"district":"Mangochi"},{"id":"mhfr-MC010259","name":"Chipumi","type":"govt","lat":-13.62519,"lng":33.08151,"district":"Mchinji"},{"id":"mhfr-CP060260","name":"Chipwera","type":"govt","lat":-9.773001,"lng":33.522856,"district":"Chitipa"},{"id":"mhfr-CR260261","name":"Chiradzulu District Hospital","type":"govt","lat":-15.7107196,"lng":35.1742529,"district":"Chiradzulu"},{"id":"mhfr-PH220263","name":"Chiringa","type":"govt","lat":-15.7724,"lng":35.769676,"district":"Phalombe"},{"id":"mhfr-PH220264","name":"Chiringa CHAM","type":"cham","lat":-15.765692,"lng":35.761923,"district":"Phalombe"},{"id":"mhfr-KB050266","name":"Chisala","type":"govt","lat":-11.6064929,"lng":34.2540704,"district":"Nkhata Bay"},{"id":"mhfr-CP060268","name":"Chisenga","type":"govt","lat":-9.974946,"lng":33.389664,"district":"Chitipa"},{"id":"mhfr-DA020269","name":"chisepo","type":"govt","lat":-13.63492,"lng":33.47017,"district":"Dowa"},{"id":"mhfr-RU140271","name":"Chisimuka","type":"govt","lat":-10.76924,"lng":33.55751,"district":"Rumphi"},{"id":"mhfr-KU070272","name":"Chinsinga","type":"govt","lat":-12.622028,"lng":33.326917,"district":"Kasungu"},{"id":"mhfr-MU210273","name":"Chisitu","type":"govt","lat":-16.0009921,"lng":35.4330321,"district":"Mulanje"},{"id":"mhfr-TH310274","name":"Chisoka Health centre","type":"govt","lat":-15.94181,"lng":35.20879,"district":"Thyolo"},{"id":"mhfr-TH310278","name":"Chisunga","type":"govt","lat":-13,"lng":33,"district":"Thyolo"},{"id":"mhfr-MC190279","name":"Chisuwi","type":"govt","lat":-14.968767,"lng":35.45754,"district":"Machinga"},{"id":"mhfr-SA090280","name":"Chitala","type":"cham","lat":-13.67161,"lng":34.27174,"district":"Salima"},{"id":"mhfr-LL040282","name":"Chitedze","type":"govt","lat":-13.97684,"lng":33.64529,"district":"Lilongwe"},{"id":"mhfr-PH220283","name":"Chitekesa","type":"govt","lat":-15.5521738,"lng":35.611432,"district":"Phalombe"},{"id":"mhfr-CR260286","name":"Chitera","type":"govt","lat":-15.60646,"lng":35.12306,"district":"Chiradzulu"},{"id":"mhfr-TH310289","name":"chithebe dispensary","type":"govt","lat":-16.00218,"lng":35.01294,"district":"Thyolo"},{"id":"mhfr-KB050290","name":"Chitheka","type":"govt","lat":-11.6080989,"lng":34.3016984,"district":"Nkhata Bay"},{"id":"mhfr-CK270291","name":"Chithumba Health Centre","type":"govt","lat":-15.80369,"lng":34.47629,"district":"Chikwawa"},{"id":"mhfr-RU140292","name":"Chitimba","type":"govt","lat":-10.59808,"lng":34.17026,"district":"Rumphi"},{"id":"mhfr-CP060293","name":"Chitipa","type":"govt","lat":-9.70159,"lng":33.2659,"district":"Chitipa"},{"id":"mhfr-DE030294","name":"Chitowo","type":"govt","lat":-14.22584,"lng":34.03961,"district":"Dedza"},{"id":"mhfr-MC190295","name":"Chitundu","type":"govt","lat":-14.915042,"lng":35.650339,"district":"Machinga"},{"id":"mhfr-MG200296","name":"Chiumbangame","type":"govt","lat":-14.31739,"lng":35.55721,"district":"Mangochi"},{"id":"mhfr-MG200297","name":"Chiunda","type":"govt","lat":-14.7778842,"lng":35.4392003,"district":"Mangochi"},{"id":"mhfr-LL040298","name":"Chiunjiza","type":"govt","lat":-14.24322,"lng":33.4013,"district":"Lilongwe"},{"id":"mhfr-LL040299","name":"Chiwamba","type":"govt","lat":-13.8571,"lng":33.92926,"district":"Lilongwe"},{"id":"mhfr-LL040301","name":"Chiwe","type":"cham","lat":-13.90738,"lng":33.39862,"district":"Lilongwe"},{"id":"mhfr-CP060302","name":"Chiweta","type":"govt","lat":-9.646359,"lng":33.246835,"district":"Chitipa"},{"id":"mhfr-LL040303","name":"Chiwoza","type":"govt","lat":-14.13,"lng":33.72,"district":"Lilongwe"},{"id":"mhfr-DA020306","name":"Chizolowondo","type":"govt","lat":-13.46336,"lng":33.51328,"district":"Dowa"},{"id":"mhfr-KB050307","name":"St. Marys","type":"cham","lat":-12.03,"lng":34.62,"district":"Nkhata Bay"},{"id":"mhfr-MZ160308","name":"Chololo","type":"govt","lat":-11.014233,"lng":33.972657,"district":"Mzimba"},{"id":"mhfr-MZ160309","name":"Choma","type":"govt","lat":-11.31318,"lng":33.99327,"district":"Mzimba"},{"id":"mhfr-MU210311","name":"Chonde","type":"govt","lat":-15.99708,"lng":35.32333,"district":"Mulanje"},{"id":"mhfr-DE030313","name":"Chongoni","type":"govt","lat":-14.31971,"lng":34.26677,"district":"Dedza"},{"id":"mhfr-KU070314","name":"Chulu","type":"govt","lat":-12.82192,"lng":33.30816,"district":"Kasungu"},{"id":"mhfr-ZA230317","name":"Manicipality","type":"govt","lat":-15.39072,"lng":35.32416,"district":"Zomba"},{"id":"mhfr-BK170321","name":"Andiamo","type":"cham","lat":-15.00318,"lng":34.95244,"district":"Balaka"},{"id":"mhfr-KB050324","name":"Cumnock","type":"cham","lat":-11.52705,"lng":34.08482,"district":"Nkhata Bay"},{"id":"mhfr-LL040325","name":"Deayang","type":"cham","lat":-13.87684,"lng":33.80867,"district":"Lilongwe"},{"id":"mhfr-DE030334","name":"Dedza District Hospital","type":"govt","lat":-14.38596,"lng":34.33547,"district":"Dedza"},{"id":"mhfr-MU210336","name":"Demule","type":"cham","lat":-15.9629283,"lng":35.4800095,"district":"Mulanje"},{"id":"mhfr-LL040339","name":"Diamphwe","type":"govt","lat":-14.13232,"lng":34.08124,"district":"Lilongwe"},{"id":"mhfr-LL040340","name":"Dickson","type":"govt","lat":-14.26626,"lng":33.65885,"district":"Lilongwe"},{"id":"mhfr-CK270345","name":"Dolo","type":"govt","lat":-16.55349,"lng":34.92423,"district":"Chikwawa"},{"id":"mhfr-ZA230347","name":"Ginisi","type":"govt","lat":-15.28099,"lng":35.39935,"district":"Zomba"},{"id":"mhfr-NT120349","name":"Doviko","type":"govt","lat":-15.0822,"lng":34.59094,"district":"Ntcheu"},{"id":"mhfr-DA020350","name":"Dowa DHO","type":"govt","lat":-13.65432,"lng":33.93625,"district":"Dowa"},{"id":"mhfr-NK100360","name":"Dwambazi","type":"govt","lat":-12.23405,"lng":33.99194,"district":"Nkhotakota"},{"id":"mhfr-NK100361","name":"Banja lamtsogolo","type":"govt","lat":-12.50975,"lng":34.1121,"district":"Nkhotakota"},{"id":"mhfr-KU070363","name":"Dwangwa","type":"govt","lat":-12.88142,"lng":33.4537,"district":"Kasungu"},{"id":"mhfr-LL040365","name":"Kapombeza","type":"govt","lat":-14.24936,"lng":33.44469,"district":"Lilongwe"},{"id":"mhfr-DA020366","name":"Dzaleka","type":"govt","lat":-13.66168,"lng":33.87042,"district":"Dowa"},{"id":"mhfr-MU210367","name":"Dzenje","type":"govt","lat":-16.1170073,"lng":35.4056002,"district":"Mulanje"},{"id":"mhfr-LL040368","name":"ku mission","type":"cham","lat":-13.87598,"lng":33.74689,"district":"Lilongwe"},{"id":"mhfr-TH310369","name":"DiDi","type":"govt","lat":-16.06096,"lng":34.98999,"district":"Thyolo"},{"id":"mhfr-TH310370","name":"Dzimbiri Health Post","type":"govt","lat":-16.10202,"lng":34.99722,"district":"Thyolo"},{"id":"mhfr-DE030371","name":"Dzindevu","type":"govt","lat":-14.20004,"lng":34.35998,"district":"Dedza"},{"id":"mhfr-BT240373","name":"Dziwe","type":"govt","lat":-15.56369,"lng":34.88038,"district":"Blantyre"},{"id":"mhfr-NT120374","name":"Dzonzi Mvai","type":"govt","lat":-14.94827,"lng":34.64306,"district":"Ntcheu"},{"id":"mhfr-DA020375","name":"Dzoole","type":"govt","lat":-13.58537,"lng":33.66156,"district":"Dowa"},{"id":"mhfr-NT120376","name":"Dzunje","type":"govt","lat":-14.80787,"lng":34.73608,"district":"Ntcheu"},{"id":"mhfr-MZ160378","name":"Edingeni","type":"govt","lat":-12.04072,"lng":33.31295,"district":"Mzimba"},{"id":"mhfr-MZ160379","name":"Ehehleni","type":"govt","lat":-12.2621,"lng":33.58912,"district":"Mzimba"},{"id":"mhfr-MU210381","name":"Ekhamuno","type":"cham","lat":-16.0675917,"lng":35.46262,"district":"Mulanje"},{"id":"mhfr-MZ160382","name":"Ekwaiweni","type":"govt","lat":-11.42309,"lng":33.89766,"district":"Mzimba"},{"id":"mhfr-MZ160383","name":"Ekwendeni near Market","type":"cham","lat":-11.37156,"lng":33.88342,"district":"Mzimba"},{"id":"mhfr-MZ160388","name":"Embangweni","type":"cham","lat":-12.136617,"lng":33.4766982,"district":"Mzimba"},{"id":"mhfr-MZ160389","name":"Emfeni","type":"govt","lat":-12.59406,"lng":33.60976,"district":"Mzimba"},{"id":"mhfr-MZ160390","name":"Emsizini","type":"govt","lat":-11.44435,"lng":33.82485,"district":"Mzimba"},{"id":"mhfr-MZ160391","name":"Endindeni","type":"govt","lat":-11.75818,"lng":33.5561,"district":"Mzimba"},{"id":"mhfr-MZ160392","name":"Engucwini","type":"govt","lat":-11.19761,"lng":33.82314,"district":"Mzimba"},{"id":"mhfr-MZ160393","name":"Enukweni","type":"govt","lat":-11.18005,"lng":33.88592,"district":"Mzimba"},{"id":"mhfr-MZ160397","name":"Euthini","type":"govt","lat":-11.4583127,"lng":33.4195575,"district":"Mzimba"},{"id":"mhfr-DA020403","name":"FPAM","type":"govt","lat":-13.65834,"lng":33.93289,"district":"Dowa"},{"id":"mhfr-NT120405","name":"FPAM","type":"govt","lat":-14.80935,"lng":34.62561,"district":"Ntcheu"},{"id":"mhfr-MC010407","name":"Fanuel","type":"govt","lat":-13.304354,"lng":33.036303,"district":"Mchinji"},{"id":"mhfr-LL040410","name":"Fpam","type":"govt","lat":-11.4026067,"lng":34.0020121,"district":"Lilongwe"},{"id":"mhfr-LL040411","name":"Kawale FPAM","type":"govt","lat":-13.99076,"lng":33.79949,"district":"Lilongwe"},{"id":"mhfr-DA020412","name":"Mtengowanthenga","type":"cham","lat":-13.6714609,"lng":33.7762569,"district":"Dowa"},{"id":"mhfr-KA150413","name":"Fulirwa","type":"govt","lat":-10.44772,"lng":34.11211,"district":"Karonga"},{"id":"mhfr-CK270414","name":"Gaga","type":"govt","lat":-15.80678,"lng":34.36487,"district":"Chikwawa"},{"id":"mhfr-NT120416","name":"Ganya","type":"cham","lat":-14.60964,"lng":34.61808,"district":"Ntcheu"},{"id":"mhfr-BT240417","name":"Gateway Dispensary","type":"govt","lat":-15.804572,"lng":35.017828,"district":"Blantyre"},{"id":"mhfr-MC190419","name":"Gawanani","type":"cham","lat":-15.2238,"lng":35.20293,"district":"Machinga"},{"id":"mhfr-BT240424","name":"GM Opticals","type":"cham","lat":-15,"lng":35,"district":"Blantyre"},{"id":"mhfr-KU070428","name":"Gogode","type":"govt","lat":-12.88773,"lng":33.56134,"district":"Kasungu"},{"id":"mhfr-CK270429","name":"Gola","type":"govt","lat":-15.883962,"lng":34.299339,"district":"Chikwawa"},{"id":"mhfr-DE030430","name":"Golomoti","type":"govt","lat":-14.41303,"lng":34.60092,"district":"Dedza"},{"id":"mhfr-TH310431","name":"Gombe","type":"govt","lat":-16.37,"lng":35.23,"district":"Thyolo"},{"id":"mhfr-KA150432","name":"Kasangamale","type":"govt","lat":-10.402957,"lng":34.134781,"district":"Karonga"},{"id":"mhfr-TH310436","name":"Gotha Estate Clinic","type":"govt","lat":-15.77213,"lng":35.76965,"district":"Thyolo"},{"id":"mhfr-NT120437","name":"Gowa","type":"cham","lat":-14.69906,"lng":34.59001,"district":"Ntcheu"},{"id":"mhfr-MZ160438","name":"Gowoka","type":"govt","lat":-11.518401,"lng":33.626397,"district":"Mzimba"},{"id":"mhfr-MC010441","name":"Gumba","type":"govt","lat":-13.42125,"lng":33.11137,"district":"Mchinji"},{"id":"mhfr-ZA230443","name":"H Parker","type":"cham","lat":-15.29912,"lng":35.36092,"district":"Zomba"},{"id":"mhfr-TH310445","name":"Ntambanyama","type":"cham","lat":-16.12668,"lng":35.08457,"district":"Thyolo"},{"id":"mhfr-KA150446","name":"Bundi","type":"govt","lat":-10.48876,"lng":34.16939,"district":"Karonga"},{"id":"mhfr-MZ160452","name":"Hoho","type":"govt","lat":-12.27815,"lng":33.6864,"district":"Mzimba"},{"id":"mhfr-PH220453","name":"Banja loyera","type":"cham","lat":-15.8247969,"lng":35.6190439,"district":"Phalombe"},{"id":"mhfr-CK270459","name":"Hunger Clinic","type":"govt","lat":-16.27045,"lng":34.86368,"district":"Chikwawa"},{"id":"mhfr-MG200460","name":"Iba dispensery","type":"govt","lat":-14.2427791,"lng":35.3944457,"district":"Mangochi"},{"id":"mhfr-CP060461","name":"Ifumbo","type":"govt","lat":-9.60436,"lng":33.40495,"district":"Chitipa"},{"id":"mhfr-CP060462","name":"Ighughu","type":"govt","lat":-9.673396,"lng":33.496793,"district":"Chitipa"},{"id":"mhfr-KA150465","name":"Iponga","type":"govt","lat":-9.6462311,"lng":33.8126995,"district":"Karonga"},{"id":"mhfr-MG200469","name":"Jalasi","type":"govt","lat":-14.3628546,"lng":35.4426129,"district":"Mangochi"},{"id":"mhfr-RU140470","name":"Jalawe","type":"govt","lat":-10.73052,"lng":34.16172,"district":"Rumphi"},{"id":"mhfr-MZ160471","name":"Jenda","type":"govt","lat":-12.35206,"lng":33.54755,"district":"Mzimba"},{"id":"mhfr-LL040479","name":"Kabudula","type":"govt","lat":-13.81972,"lng":33.44838,"district":"Lilongwe"},{"id":"mhfr-MZ160480","name":"Kabuwa","type":"govt","lat":-12.51726,"lng":34.07395,"district":"Mzimba"},{"id":"mhfr-MZ160481","name":"Kabwafu","type":"govt","lat":-11.30869,"lng":33.52556,"district":"Mzimba"},{"id":"mhfr-KB050484","name":"Kachere","type":"govt","lat":-11.606664,"lng":34.2536593,"district":"Nkhata Bay"},{"id":"mhfr-BT240485","name":"Kachere Rehabilitation","type":"govt","lat":-15.80339,"lng":35.01819,"district":"Blantyre"},{"id":"mhfr-DE030487","name":"Kachindamoto","type":"govt","lat":-14.2143955,"lng":34.5529965,"district":"Dedza"},{"id":"mhfr-MG200488","name":"Kadango","type":"govt","lat":-14.060711,"lng":35.186208,"district":"Mangochi"},{"id":"mhfr-BT240490","name":"Kadidi","type":"govt","lat":-15.66083,"lng":35.02212,"district":"Blantyre"},{"id":"mhfr-DE030491","name":"Kafere","type":"govt","lat":-14.43168,"lng":33.71746,"district":"Dedza"},{"id":"mhfr-MZ160493","name":"Kafukule","type":"govt","lat":-11.4575,"lng":33.63395,"district":"Mzimba"},{"id":"mhfr-MC010494","name":"Kaigwazanga","type":"govt","lat":-13.62678,"lng":32.92836,"district":"Mchinji"},{"id":"mhfr-CK270495","name":"Kakoma","type":"govt","lat":-16.09819,"lng":34.62398,"district":"Chikwawa"},{"id":"mhfr-NS300496","name":"Kalemba","type":"cham","lat":-16.57572,"lng":35.11207,"district":"Nsanje"},{"id":"mhfr-BK170497","name":"Kalembo","type":"govt","lat":-14.84268,"lng":35.17081,"district":"Balaka"},{"id":"mhfr-MZ160499","name":"Kalikumbi","type":"cham","lat":-12.2038,"lng":33.33352,"district":"Mzimba"},{"id":"mhfr-NT120500","name":"Kalimanjira","type":"govt","lat":-14.866774,"lng":34.90896,"district":"Ntcheu"},{"id":"mhfr-PH220502","name":"Kalinde","type":"govt","lat":-15.67212,"lng":35.728338,"district":"Phalombe"},{"id":"mhfr-CP060503","name":"Near Kalira school","type":"govt","lat":-9.575143,"lng":33.312223,"district":"Chitipa"},{"id":"mhfr-BT240506","name":"Kalong - Limbe","type":"cham","lat":-15.80902,"lng":35.05916,"district":"Blantyre"},{"id":"mhfr-DE030507","name":"Kalulu","type":"govt","lat":-13.99695,"lng":34.19753,"district":"Dedza"},{"id":"mhfr-KU070509","name":"Kaluluma","type":"govt","lat":-12.57759,"lng":33.51859,"district":"Kasungu"},{"id":"mhfr-MZ160511","name":"Kamanda","type":"govt","lat":-11.149343,"lng":34.032283,"district":"Mzimba"},{"id":"mhfr-MU210515","name":"Kambenje","type":"govt","lat":-15.85308,"lng":35.56394,"district":"Mulanje"},{"id":"mhfr-KU070518","name":"Kamboni","type":"govt","lat":-13.30759,"lng":33.18189,"district":"Kasungu"},{"id":"mhfr-CP060519","name":"Kameme","type":"govt","lat":-9.54425,"lng":33.13134,"district":"Chitipa"},{"id":"mhfr-NT120521","name":"Kampanje","type":"govt","lat":-14.59947,"lng":34.58684,"district":"Ntcheu"},{"id":"mhfr-LL040523","name":"Kamphoni","type":"govt","lat":-14.31496,"lng":33.634283,"district":"Lilongwe"},{"id":"mhfr-NT080525","name":"Kamsonga","type":"govt","lat":-13.2745621,"lng":33.7993437,"district":"Ntchisi"},{"id":"mhfr-MZ160526","name":"Kamteteka","type":"govt","lat":-11.83649,"lng":33.35892,"district":"Mzimba"},{"id":"mhfr-LL040528","name":"Kamuzu Barracks","type":"govt","lat":-13.98131,"lng":33.82105,"district":"Lilongwe"},{"id":"mhfr-LL040529","name":"Central","type":"govt","lat":-13.97639,"lng":33.78512,"district":"Lilongwe"},{"id":"mhfr-MZ160530","name":"Kamwe","type":"govt","lat":-11.10265,"lng":33.78911,"district":"Mzimba"},{"id":"mhfr-MU210531","name":"Kamwendo","type":"govt","lat":-15.674962,"lng":35.476907,"district":"Mulanje"},{"id":"mhfr-DE030532","name":"Mdeza","type":"govt","lat":-13.487476,"lng":33.92326,"district":"Dedza"},{"id":"mhfr-KB050533","name":"Kande","type":"govt","lat":-11.93641,"lng":34.10944,"district":"Nkhata Bay"},{"id":"mhfr-NT120534","name":"Kandeu","type":"govt","lat":-14.60262,"lng":34.61621,"district":"Ntcheu"},{"id":"mhfr-LL040536","name":"Kang'oma","type":"govt","lat":-13.97817,"lng":33.88219,"district":"Lilongwe"},{"id":"mhfr-NT080537","name":"Songeya","type":"govt","lat":-13.37046,"lng":34.07048,"district":"Ntchisi"},{"id":"mhfr-BT240540","name":"Kanjeza Police dispensary","type":"govt","lat":-15.815721,"lng":35.048525,"district":"Blantyre"},{"id":"mhfr-BK170541","name":"Kankao","type":"cham","lat":-15.05425,"lng":34.92264,"district":"Balaka"},{"id":"mhfr-DE030542","name":"Kanyama","type":"cham","lat":-14.24015,"lng":34.32356,"district":"Dedza"},{"id":"mhfr-CP060543","name":"Kanyenjere","type":"govt","lat":-9.762793,"lng":33.417264,"district":"Chitipa"},{"id":"mhfr-DE030546","name":"Kanyezi","type":"govt","lat":-14.31391,"lng":33.95303,"district":"Dedza"},{"id":"mhfr-NS300548","name":"Kanyimbi","type":"govt","lat":-16.69453,"lng":34.967,"district":"Nsanje"},{"id":"mhfr-NK100550","name":"Kaongozi","type":"govt","lat":-12.43665,"lng":34.04998,"district":"Nkhotakota"},{"id":"mhfr-MC010551","name":"Kapanga","type":"govt","lat":-14.05997,"lng":33.30626,"district":"Mchinji"},{"id":"mhfr-MZ160552","name":"Kapangamawe","type":"govt","lat":-11.449527,"lng":33.680755,"district":"Mzimba"},{"id":"mhfr-KU070553","name":"Kapelula","type":"govt","lat":-12.87767,"lng":33.87086,"district":"Kasungu"},{"id":"mhfr-CP060554","name":"Kapenda","type":"govt","lat":-9.49394,"lng":33.24911,"district":"Chitipa"},{"id":"mhfr-BT240556","name":"Kapeni Dream Centre","type":"cham","lat":-15.62,"lng":35.01,"district":"Blantyre"},{"id":"mhfr-NT120557","name":"Kapeni","type":"govt","lat":-15.00511,"lng":34.77059,"district":"Ntcheu"},{"id":"mhfr-SA090559","name":"Mission","type":"cham","lat":-13.76222,"lng":34.38418,"district":"Salima"},{"id":"mhfr-DE030560","name":"Kaphuka","type":"govt","lat":-14.16013,"lng":34.19001,"district":"Dedza"},{"id":"mhfr-NK100562","name":"Kapiri","type":"cham","lat":-13.21616,"lng":34.31136,"district":"Nkhotakota"},{"id":"mhfr-MG200563","name":"Kapire","type":"cham","lat":-14.7858459,"lng":34.9994469,"district":"Mangochi"},{"id":"mhfr-MC010564","name":"Our Lady of Mount Carmel","type":"cham","lat":-15.556,"lng":35.8193,"district":"Mchinji"},{"id":"mhfr-KA150566","name":"Kibwe","type":"govt","lat":-9.76756,"lng":33.87466,"district":"Karonga"},{"id":"mhfr-DA020567","name":"kaputalambwe","type":"govt","lat":-13.7653091,"lng":33.898449,"district":"Dowa"},{"id":"mhfr-KU070568","name":"Kapyanga","type":"govt","lat":-12.82384,"lng":33.78842,"district":"Kasungu"},{"id":"mhfr-KA150570","name":"Chaboma","type":"govt","lat":-9.95545,"lng":33.91113,"district":"Karonga"},{"id":"mhfr-CP060571","name":"Karopa","type":"govt","lat":-10.216613,"lng":33.650444,"district":"Chitipa"},{"id":"mhfr-KU070572","name":"Kasalika","type":"govt","lat":-13.03985,"lng":33.49866,"district":"Kasungu"},{"id":"mhfr-DA020578","name":"Kasese","type":"govt","lat":-13.33338,"lng":33.57629,"district":"Dowa"},{"id":"mhfr-CP060579","name":"Kaseye","type":"cham","lat":-9.6665615,"lng":33.3740432,"district":"Chitipa"},{"id":"mhfr-DE030580","name":"Kasina","type":"cham","lat":-14.143,"lng":34.13183,"district":"Dedza"},{"id":"mhfr-NT120581","name":"Kasinje","type":"govt","lat":-14.52315,"lng":34.67642,"district":"Ntcheu"},{"id":"mhfr-NK100583","name":"Seventh day","type":"cham","lat":-12.30938,"lng":34.0343,"district":"Nkhotakota"},{"id":"mhfr-KA150585","name":"Kasoba","type":"govt","lat":-9.87355,"lng":33.86972,"district":"Karonga"},{"id":"mhfr-RU140586","name":"Kasonkhwe clinic","type":"cham","lat":-10.733449,"lng":34.0789,"district":"Rumphi"},{"id":"mhfr-KU070588","name":"Kasungu","type":"govt","lat":-13.03579,"lng":33.48041,"district":"Kasungu"},{"id":"mhfr-LL040593","name":"Katchale","type":"govt","lat":-14.2836,"lng":33.90782,"district":"Lilongwe"},{"id":"mhfr-MG200594","name":"Katema","type":"cham","lat":-14.5257587,"lng":35.0373813,"district":"Mangochi"},{"id":"mhfr-MZ160596","name":"Mission","type":"cham","lat":-12.34592,"lng":33.61421,"district":"Mzimba"},{"id":"mhfr-NK100597","name":"Katimbira","type":"govt","lat":-12.7571482,"lng":34.2177405,"district":"Nkhotakota"},{"id":"mhfr-KA150598","name":"Katiri","type":"govt","lat":-10.0693605,"lng":33.8813089,"district":"Karonga"},{"id":"mhfr-MC010599","name":"Katope","type":"govt","lat":-11.074251,"lng":34.007405,"district":"Mchinji"},{"id":"mhfr-RU140600","name":"Katowo","type":"govt","lat":-10.81278,"lng":33.52222,"district":"Rumphi"},{"id":"mhfr-NT120601","name":"Katsekera","type":"govt","lat":-15.03336,"lng":34.64072,"district":"Ntcheu"},{"id":"mhfr-MG200602","name":"Katuli","type":"govt","lat":-14.17962,"lng":35.44476,"district":"Mangochi"},{"id":"mhfr-DE030604","name":"Kaundu","type":"cham","lat":-14.29368,"lng":34.62839,"district":"Dedza"},{"id":"mhfr-LL040610","name":"Kawale","type":"govt","lat":-13.99175,"lng":33.79757,"district":"Lilongwe"},{"id":"mhfr-KU070612","name":"Kawamba","type":"govt","lat":-13.29575,"lng":33.3393,"district":"Kasungu"},{"id":"mhfr-MZ160613","name":"Kaweche","type":"govt","lat":-11.340511,"lng":33.8662969,"district":"Mzimba"},{"id":"mhfr-MC190614","name":"Nanyumbu","type":"govt","lat":-14.85468,"lng":35.57198,"district":"Machinga"},{"id":"mhfr-KA150615","name":"Kayelekela","type":"govt","lat":-9.970284,"lng":33.688526,"district":"Karonga"},{"id":"mhfr-DA020616","name":"Kayembe","type":"govt","lat":-13.64256,"lng":33.58301,"district":"Dowa"},{"id":"mhfr-MC010618","name":"Kazyozyo","type":"govt","lat":-13.57544,"lng":32.86387,"district":"Mchinji"},{"id":"mhfr-MU210623","name":"Khaya","type":"cham","lat":-15.9890738,"lng":35.3945997,"district":"Mulanje"},{"id":"mhfr-KU070625","name":"Khola","type":"govt","lat":-13.34447,"lng":33.31649,"district":"Kasungu"},{"id":"mhfr-SA090626","name":"Khombedza","type":"govt","lat":-13.59695,"lng":34.31111,"district":"Salima"},{"id":"mhfr-KB050627","name":"Nkondowe","type":"govt","lat":-11.07281,"lng":34.21939,"district":"Nkhata Bay"},{"id":"mhfr-LL040629","name":"Khongoni","type":"govt","lat":-13.77451,"lng":33.36761,"district":"Lilongwe"},{"id":"mhfr-TH310631","name":"Khonjeni health centre","type":"govt","lat":-16.09692,"lng":35.27129,"district":"Thyolo"},{"id":"mhfr-MZ160632","name":"Khosolo","type":"govt","lat":-12.4402,"lng":33.79133,"district":"Mzimba"},{"id":"mhfr-NT080634","name":"Iwawe","type":"govt","lat":-13.43192,"lng":33.83367,"district":"Ntchisi"},{"id":"mhfr-MG200636","name":"Koche hospital","type":"cham","lat":-14.3333683,"lng":35.1434685,"district":"Mangochi"},{"id":"mhfr-MC010637","name":"Kochilira","type":"govt","lat":-13.78239,"lng":33.04385,"district":"Mchinji"},{"id":"mhfr-CP060638","name":"Kopakopa","type":"govt","lat":-10.138347,"lng":33.702798,"district":"Chitipa"},{"id":"mhfr-MG200642","name":"Kukalanga","type":"govt","lat":-14.6373449,"lng":35.1800722,"district":"Mangochi"},{"id":"mhfr-MW280646","name":"Kunenekude","type":"govt","lat":-15.46467,"lng":34.49142,"district":"Mwanza"},{"id":"mhfr-BK170649","name":"Kwitanda","type":"govt","lat":-15.06495,"lng":35.093,"district":"Balaka"},{"id":"mhfr-NT120652","name":"Lake View Health Centre","type":"cham","lat":-14.64251,"lng":34.55371,"district":"Ntcheu"},{"id":"mhfr-ZA230653","name":"Chilombo","type":"govt","lat":-15.4841,"lng":35.337,"district":"Zomba"},{"id":"mhfr-LL040655","name":"Lemwe health center","type":"govt","lat":-13.89,"lng":33.34,"district":"Lilongwe"},{"id":"mhfr-SA090663","name":"Lifuwu","type":"govt","lat":-13.67915,"lng":34.58878,"district":"Salima"},{"id":"mhfr-NE290665","name":"ligowe health centre","type":"govt","lat":-15.47368,"lng":34.65182,"district":"Neno"},{"id":"mhfr-ZA230667","name":"Likangala","type":"govt","lat":-15.42787,"lng":35.54461,"district":"Zomba"},{"id":"mhfr-MC190668","name":"Likhonyowa","type":"govt","lat":-14.959359,"lng":35.790527,"district":"Machinga"},{"id":"mhfr-LK180669","name":"Chipyera","type":"cham","lat":-12.0650755,"lng":34.73657,"district":"Likoma"},{"id":"mhfr-LL040671","name":"Ku Mission","type":"cham","lat":-14.02683,"lng":33.70886,"district":"Lilongwe"},{"id":"mhfr-LL040675","name":"Lilongwe Health Clinic - Limbe Muslim","type":"cham","lat":-13.96642,"lng":33.76625,"district":"Lilongwe"},{"id":"mhfr-BT240678","name":"Limbe","type":"govt","lat":-15.816967,"lng":35.051775,"district":"Blantyre"},{"id":"mhfr-BT240679","name":"Limbe Home Based Care","type":"govt","lat":-15.81714,"lng":35.05187,"district":"Blantyre"},{"id":"mhfr-BT240686","name":"Limbe Muslim Jamat - Habiba Mussa Clinic","type":"cham","lat":-15.3882832,"lng":35.3135438,"district":"Blantyre"},{"id":"mhfr-KU070696","name":"Linyagwa Health Centre","type":"govt","lat":-13.14379,"lng":33.3005,"district":"Kasungu"},{"id":"mhfr-BT240698","name":"Lilangwe","type":"govt","lat":-15.52963,"lng":35.02973,"district":"Blantyre"},{"id":"mhfr-NE290700","name":"Lisungwi Community Hospital","type":"govt","lat":-15.3954489,"lng":34.6531105,"district":"Neno"},{"id":"mhfr-KB050701","name":"Liuzi","type":"govt","lat":-12.18971,"lng":34.01572,"district":"Nkhata Bay"},{"id":"mhfr-RU140702","name":"Khondowe","type":"cham","lat":-10.60467,"lng":34.1109,"district":"Rumphi"},{"id":"mhfr-KU070703","name":"Livwezi","type":"govt","lat":-12.893461,"lng":33.678996,"district":"Kasungu"},{"id":"mhfr-NK100704","name":"St Anne's","type":"cham","lat":-12.62054,"lng":34.16538,"district":"Nkhotakota"},{"id":"mhfr-NT120707","name":"Lizulu","type":"govt","lat":-14.51775,"lng":34.46547,"district":"Ntcheu"},{"id":"mhfr-DE030708","name":"Lobi","type":"govt","lat":-14.39034,"lng":34.07182,"district":"Dedza"},{"id":"mhfr-KU070709","name":"Lodjwa","type":"govt","lat":-12.41898,"lng":33.52947,"district":"Kasungu"},{"id":"mhfr-MC010711","name":"Ludzi Community hospital","type":"cham","lat":-13.75862,"lng":32.99271,"district":"Mchinji"},{"id":"mhfr-MG200714","name":"Lugola","type":"cham","lat":-13.9617583,"lng":35.14273,"district":"Mangochi"},{"id":"mhfr-MG200717","name":"Lulanga","type":"cham","lat":-13.68744,"lng":34.91742,"district":"Mangochi"},{"id":"mhfr-LL040719","name":"Chinkhuti","type":"govt","lat":-13.77074,"lng":33.80477,"district":"Lilongwe"},{"id":"mhfr-BT240722","name":"Mitsidi","type":"cham","lat":-15.77702,"lng":34.96873,"district":"Blantyre"},{"id":"mhfr-BT240723","name":"Lundu","type":"govt","lat":-15.42185,"lng":35.01294,"district":"Blantyre"},{"id":"mhfr-ZA230724","name":"Lungazi","type":"govt","lat":-15.418725,"lng":35.846034,"district":"Zomba"},{"id":"mhfr-MG200726","name":"Lungwena","type":"govt","lat":-14.24501,"lng":35.24804,"district":"Mangochi"},{"id":"mhfr-MZ160727","name":"Lunjika","type":"cham","lat":-11.71429859,"lng":33.6857335,"district":"Mzimba"},{"id":"mhfr-NK100728","name":"Lupachi","type":"govt","lat":-12.318585,"lng":33.779585,"district":"Nkhotakota"},{"id":"mhfr-KA150729","name":"Lupaso","type":"govt","lat":-9.930017,"lng":33.853121,"district":"Karonga"},{"id":"mhfr-KA150730","name":"Lupembe","type":"govt","lat":-10.4889233,"lng":34.16902,"district":"Karonga"},{"id":"mhfr-RU140731","name":"Dukuduku","type":"govt","lat":-10.72638,"lng":34.04408,"district":"Rumphi"},{"id":"mhfr-MZ160732","name":"Lusangazi","type":"cham","lat":-11.49979,"lng":33.94291,"district":"Mzimba"},{"id":"mhfr-MZ160735","name":"Luviri","type":"govt","lat":-12.2033,"lng":33.665772,"district":"Mzimba"},{"id":"mhfr-MZ160736","name":"Luvwere","type":"govt","lat":-11.3889883,"lng":33.6728017,"district":"Mzimba"},{"id":"mhfr-MG200737","name":"Luwalika","type":"cham","lat":-14.23797,"lng":35.46952,"district":"Mangochi"},{"id":"mhfr-NE290738","name":"Luwani Health Centre","type":"govt","lat":-15.3955218,"lng":34.6531907,"district":"Neno"},{"id":"mhfr-MU210739","name":"Luwannje Health Post","type":"cham","lat":-15.9872824,"lng":35.4166259,"district":"Mulanje"},{"id":"mhfr-MZ160740","name":"Luwawa","type":"govt","lat":-12.11337,"lng":33.71943,"district":"Mzimba"},{"id":"mhfr-MZ160741","name":"LUWEREZI","type":"govt","lat":-12.48825,"lng":33.64119,"district":"Mzimba"},{"id":"mhfr-RU140742","name":"Luwuchi","type":"cham","lat":-10.68353,"lng":34.19353,"district":"Rumphi"},{"id":"mhfr-MZ160743","name":"Luzi Near M1 Road","type":"govt","lat":-10.99681,"lng":33.95583,"district":"Mzimba"},{"id":"mhfr-KB050744","name":"Lwazi Health Centre","type":"govt","lat":-11.51864,"lng":34.15115,"district":"Nkhata Bay"},{"id":"mhfr-KA150745","name":"Lwezga","type":"govt","lat":-9.9548558,"lng":33.9116481,"district":"Karonga"},{"id":"mhfr-ZA230747","name":"M'mambo","type":"govt","lat":-15.26264,"lng":35.15945,"district":"Zomba"},{"id":"mhfr-MZ160748","name":"Mabiri","type":"cham","lat":-12.2459011,"lng":33.4298413,"district":"Mzimba"},{"id":"mhfr-NT120751","name":"Matchereza","type":"govt","lat":-15.20665,"lng":34.84761,"district":"Ntcheu"},{"id":"mhfr-MC190752","name":"ku District","type":"govt","lat":-15.06229,"lng":35.2263,"district":"Machinga"},{"id":"mhfr-MC190753","name":"Machinga Boma","type":"govt","lat":-15.1773,"lng":35.29565,"district":"Machinga"},{"id":"mhfr-ZA230755","name":"Joyce Banda","type":"govt","lat":-15.23666,"lng":35.41707,"district":"Zomba"},{"id":"mhfr-LL040759","name":"Macro","type":"govt","lat":-13.99819,"lng":33.776,"district":"Lilongwe"},{"id":"mhfr-MZ160765","name":"Madede","type":"govt","lat":-11.53894,"lng":33.29456,"district":"Mzimba"},{"id":"mhfr-BT240766","name":"Madinah social services - Ndirande","type":"govt","lat":-15.77621,"lng":35.03847,"district":"Blantyre"},{"id":"mhfr-MZ160768","name":"Madise","type":"govt","lat":-11.263586,"lng":33.780672,"district":"Mzimba"},{"id":"mhfr-DA020769","name":"madisi","type":"cham","lat":-13.40712,"lng":33.60813,"district":"Dowa"},{"id":"mhfr-BT240770","name":"Madziabango","type":"govt","lat":-15.9678,"lng":34.90825,"district":"Blantyre"},{"id":"mhfr-ZA230771","name":"Maera","type":"govt","lat":-15.50987,"lng":35.1315,"district":"Zomba"},{"id":"mhfr-SA090773","name":"MAFCO","type":"govt","lat":-13.78419,"lng":34.60338,"district":"Salima"},{"id":"mhfr-NE290776","name":"Magaleta","type":"govt","lat":-15.3951395,"lng":34.6539354,"district":"Neno"},{"id":"mhfr-SA090778","name":"Maganga","type":"govt","lat":-13.84681,"lng":34.5591,"district":"Salima"},{"id":"mhfr-ZA230779","name":"Magomero","type":"cham","lat":-15.56147,"lng":35.26101,"district":"Zomba"},{"id":"mhfr-TH310780","name":"Mangunda","type":"govt","lat":-16.02884,"lng":35.26166,"district":"Thyolo"},{"id":"mhfr-CP060781","name":"Mahowe","type":"govt","lat":-10.183192,"lng":33.690349,"district":"Chitipa"},{"id":"mhfr-MG200786","name":"Makanjira","type":"govt","lat":-13.7152548,"lng":35.0473141,"district":"Mangochi"},{"id":"mhfr-TH310787","name":"Makapwa Health Centre","type":"cham","lat":-16.18199,"lng":35.27984,"district":"Thyolo"},{"id":"mhfr-BT240788","name":"Makata","type":"govt","lat":-15.62996,"lng":35.07964,"district":"Blantyre"},{"id":"mhfr-NS300789","name":"Makhanga","type":"govt","lat":-16.33721,"lng":35.09671,"district":"Nsanje"},{"id":"mhfr-BT240790","name":"Makhetha health centre","type":"govt","lat":-15.62996,"lng":35.07964,"district":"Blantyre"},{"id":"mhfr-CK270791","name":"Makhwira","type":"govt","lat":-16.19483,"lng":35.01065,"district":"Chikwawa"},{"id":"mhfr-SA090792","name":"Makiyoni","type":"govt","lat":-13.58599,"lng":34.197,"district":"Salima"},{"id":"mhfr-TH310794","name":"Makungwa","type":"govt","lat":-15.901417,"lng":34.9625479,"district":"Thyolo"},{"id":"mhfr-ZA230795","name":"Mwakwapala","type":"govt","lat":-15.36938,"lng":35.4506,"district":"Zomba"},{"id":"mhfr-BT240799","name":"Malabada","type":"cham","lat":-15,"lng":33,"district":"Blantyre"},{"id":"mhfr-NT080801","name":"Malambo","type":"cham","lat":-13.21307,"lng":33.76244,"district":"Ntchisi"},{"id":"mhfr-TH310803","name":"Malamulo Mission Hospital","type":"cham","lat":-16.17155,"lng":35.11011,"district":"Thyolo"},{"id":"mhfr-CR260804","name":"Malavi","type":"govt","lat":-15.83686,"lng":35.14867,"district":"Chiradzulu"},{"id":"mhfr-BT240806","name":"Polytechnic","type":"govt","lat":-15.80207,"lng":35.02718,"district":"Blantyre"},{"id":"mhfr-MG200808","name":"Malembo","type":"cham","lat":-14.236395,"lng":34.8251595,"district":"Mangochi"},{"id":"mhfr-LL040809","name":"Malembo health centre","type":"govt","lat":-13.62006,"lng":33.41507,"district":"Lilongwe"},{"id":"mhfr-MG200810","name":"Maleta","type":"govt","lat":-13.92942,"lng":35.26355,"district":"Mangochi"},{"id":"mhfr-MZ160812","name":"Malidade","type":"govt","lat":-11.22926,"lng":33.49989,"district":"Mzimba"},{"id":"mhfr-LL040814","name":"Malingunde","type":"cham","lat":-14.16887,"lng":33.6397,"district":"Lilongwe"},{"id":"mhfr-NT080818","name":"Malomo","type":"govt","lat":-13.14861,"lng":33.83927,"district":"Ntchisi"},{"id":"mhfr-NK100819","name":"Malowa","type":"govt","lat":-13.1816,"lng":34.25165,"district":"Nkhotakota"},{"id":"mhfr-MG200820","name":"Malukula","type":"govt","lat":-14.4435236,"lng":35.3559647,"district":"Mangochi"},{"id":"mhfr-KA150821","name":"Malungo","type":"govt","lat":-9.886358,"lng":33.905859,"district":"Karonga"},{"id":"mhfr-LL040822","name":"Maluwa","type":"govt","lat":-14.26287,"lng":33.87364,"district":"Lilongwe"},{"id":"mhfr-MC190827","name":"Mangamba","type":"govt","lat":-14.79145,"lng":35.43652,"district":"Machinga"},{"id":"mhfr-MG200829","name":"Mangochi district hospital","type":"govt","lat":-14.4817417,"lng":35.2645629,"district":"Mangochi"},{"id":"mhfr-CK270830","name":"Mangulenje Health Centre","type":"govt","lat":-16.10534,"lng":34.9157,"district":"Chikwawa"},{"id":"mhfr-NT120831","name":"Manjawira","type":"govt","lat":-15.00254,"lng":34.85709,"district":"Ntcheu"},{"id":"mhfr-MZ160833","name":"Kalanga","type":"govt","lat":-11.2279004,"lng":33.4584974,"district":"Mzimba"},{"id":"mhfr-MZ160834","name":"Manyamula","type":"govt","lat":-11.94005,"lng":33.43945,"district":"Mzimba"},{"id":"mhfr-DE030836","name":"Maonde","type":"govt","lat":-14.4057,"lng":34.11592,"district":"Dedza"},{"id":"mhfr-MG200837","name":"Maoni","type":"cham","lat":-14.51126,"lng":34.997467,"district":"Mangochi"},{"id":"mhfr-CK270840","name":"Maperera","type":"govt","lat":-16.10534,"lng":34.9157,"district":"Chikwawa"},{"id":"mhfr-NT120844","name":"Masasa","type":"govt","lat":-14.4334,"lng":34.42243,"district":"Ntcheu"},{"id":"mhfr-MG200845","name":"Mase","type":"cham","lat":-14.5804702,"lng":35.3641221,"district":"Mangochi"},{"id":"mhfr-NS300846","name":"Masenjere","type":"govt","lat":-16.33721,"lng":35.09671,"district":"Nsanje"},{"id":"mhfr-NT120853","name":"Matanda","type":"cham","lat":-15.10516,"lng":34.66845,"district":"Ntcheu"},{"id":"mhfr-NE290854","name":"Matandani Health Centre","type":"cham","lat":-15.33071,"lng":34.65321,"district":"Neno"},{"id":"mhfr-LL040855","name":"Matapira","type":"govt","lat":-14.01108,"lng":33.97509,"district":"Lilongwe"},{"id":"mhfr-ZA230856","name":"Matawale","type":"govt","lat":-15.39029,"lng":35.35958,"district":"Zomba"},{"id":"mhfr-DA020858","name":"Matekenya","type":"govt","lat":-13.564647,"lng":34.047714,"district":"Dowa"},{"id":"mhfr-NK100860","name":"Matiki","type":"govt","lat":-12.49874,"lng":34.15464,"district":"Nkhotakota"},{"id":"mhfr-ZA230861","name":"Matiya","type":"cham","lat":-15.53371,"lng":35.5478,"district":"Zomba"},{"id":"mhfr-NE290862","name":"Matope Health Centre","type":"cham","lat":-15.3537,"lng":34.94732,"district":"Neno"},{"id":"mhfr-MZ160863","name":"Matuli","type":"govt","lat":-11.48513,"lng":33.89613,"district":"Mzimba"},{"id":"mhfr-DE030864","name":"Matumba","type":"cham","lat":-14.37283,"lng":33.90594,"district":"Dedza"},{"id":"mhfr-KB050865","name":"Kambuni","type":"govt","lat":-11.73518,"lng":34.23514,"district":"Nkhata Bay"},{"id":"mhfr-LL040866","name":"Maula Prison","type":"govt","lat":-13.97,"lng":33.77,"district":"Lilongwe"},{"id":"mhfr-CR260867","name":"Mauwa","type":"govt","lat":-15.65283,"lng":35.2498,"district":"Chiradzulu"},{"id":"mhfr-ZA230868","name":"Mayaka","type":"cham","lat":-15.57355,"lng":35.3728,"district":"Zomba"},{"id":"mhfr-DE030869","name":"Mayani","type":"govt","lat":-14.09697,"lng":34.24281,"district":"Dedza"},{"id":"mhfr-LL040872","name":"Mbabvi","type":"govt","lat":-13.92808,"lng":33.67087,"district":"Lilongwe"},{"id":"mhfr-MZ160873","name":"Mbalachanda","type":"govt","lat":-11.35738,"lng":33.37133,"district":"Mzimba"},{"id":"mhfr-LL040877","name":"Mbang'ombe 2","type":"govt","lat":-14.16945,"lng":33.37942,"district":"Lilongwe"},{"id":"mhfr-LL040878","name":"Mbang'ombe 1","type":"govt","lat":-13.73673,"lng":33.71382,"district":"Lilongwe"},{"id":"mhfr-MC190879","name":"Mbanira","type":"govt","lat":-14.975262,"lng":35.598659,"district":"Machinga"},{"id":"mhfr-BT240881","name":"Mbayani health Centre","type":"govt","lat":-15.775577,"lng":35.000875,"district":"Blantyre"},{"id":"mhfr-NS300883","name":"Mbenje","type":"govt","lat":-16.99464,"lng":35.22079,"district":"Nsanje"},{"id":"mhfr-BK170884","name":"Mbera","type":"govt","lat":-14.91088,"lng":35.05326,"district":"Balaka"},{"id":"mhfr-DA020885","name":"Mbingwa","type":"govt","lat":-13.54425,"lng":33.51485,"district":"Dowa"},{"id":"mhfr-MU210886","name":"kwaMbiza","type":"govt","lat":-16.0928127,"lng":35.3461829,"district":"Mulanje"},{"id":"mhfr-MC190888","name":"Mbonechera","type":"govt","lat":-14.88932,"lng":35.47818,"district":"Machinga"},{"id":"mhfr-CR260889","name":"Mbulumbuzi","type":"govt","lat":-15.63834,"lng":35.15687,"district":"Chiradzulu"},{"id":"mhfr-LL040892","name":"Mbwatalika","type":"cham","lat":-14.00387,"lng":33.5507,"district":"Lilongwe"},{"id":"mhfr-NS300893","name":"Mchacha James","type":"govt","lat":-16.76255,"lng":35.04739,"district":"Nsanje"},{"id":"mhfr-RU140894","name":"Mchenga","type":"govt","lat":-10.69957,"lng":34.14036,"district":"Rumphi"},{"id":"mhfr-CP060897","name":"Mchina","type":"govt","lat":-10.309487,"lng":33.711544,"district":"Chitipa"},{"id":"mhfr-MC010898","name":"Mchinji","type":"govt","lat":-13.80273,"lng":32.88716,"district":"Mchinji"},{"id":"mhfr-SA090899","name":"Mchoka","type":"govt","lat":-13.92593,"lng":34.48984,"district":"Salima"},{"id":"mhfr-BT240900","name":"Mdeka","type":"govt","lat":-15.46769,"lng":34.94236,"district":"Blantyre"},{"id":"mhfr-DE030901","name":"Mdeza","type":"govt","lat":-14.2351461,"lng":33.967781,"district":"Dedza"},{"id":"mhfr-KU070902","name":"Mdunga","type":"govt","lat":-12.9931,"lng":33.8519,"district":"Kasungu"},{"id":"mhfr-BT240904","name":"City Health Clinic","type":"cham","lat":-15.79648,"lng":35.00797,"district":"Blantyre"},{"id":"mhfr-CK270909","name":"Mfera","type":"govt","lat":-16.06818,"lng":34.86724,"district":"Chikwawa"},{"id":"mhfr-DE030910","name":"Mganja","type":"govt","lat":-14.42048,"lng":34.52305,"district":"Dedza"},{"id":"mhfr-MZ160911","name":"Mgoza","type":"govt","lat":-12.67329,"lng":33.831326,"district":"Mzimba"},{"id":"mhfr-MZ160912","name":"Mhalaunda","type":"cham","lat":-12.05118,"lng":33.46656,"district":"Mzimba"},{"id":"mhfr-RU140914","name":"Mhuju Rural Hospital","type":"govt","lat":-10.86685,"lng":33.99765,"district":"Rumphi"},{"id":"mhfr-PH220920","name":"Migowi","type":"govt","lat":-15.71922,"lng":35.68542,"district":"Phalombe"},{"id":"mhfr-TH310922","name":"Mikolongwe","type":"govt","lat":-15.90149,"lng":35.18367,"district":"Thyolo"},{"id":"mhfr-DE030923","name":"Mikondo","type":"cham","lat":-14.44767,"lng":33.93951,"district":"Dedza"},{"id":"mhfr-MC010925","name":"Mikundi Health Centre","type":"govt","lat":-13.70751,"lng":33.13821,"district":"Mchinji"},{"id":"mhfr-ZA230926","name":"Mikuyu","type":"govt","lat":-15.41764,"lng":35.41968,"district":"Zomba"},{"id":"mhfr-CR260929","name":"Milepa","type":"govt","lat":-15.68713,"lng":35.31818,"district":"Chiradzulu"},{"id":"mhfr-MU210930","name":"Milonde","type":"govt","lat":-16.1024462,"lng":35.4782637,"district":"Mulanje"},{"id":"mhfr-MU210931","name":"Mimosa","type":"govt","lat":-16.08574,"lng":35.61263,"district":"Mulanje"},{"id":"mhfr-LL040932","name":"Ming'ongo","type":"govt","lat":-14.07479,"lng":33.44838,"district":"Lilongwe"},{"id":"mhfr-NS300936","name":"Bwangu","type":"govt","lat":-16.76255,"lng":35.04739,"district":"Nsanje"},{"id":"mhfr-MU210937","name":"Misanjo","type":"cham","lat":-16.0882744,"lng":35.4762189,"district":"Mulanje"},{"id":"mhfr-CK270939","name":"Misomali Health Centre","type":"cham","lat":-16.03775,"lng":34.5372,"district":"Chikwawa"},{"id":"mhfr-CP060941","name":"Misuku","type":"govt","lat":-9.67977,"lng":33.52076,"district":"Chitipa"},{"id":"mhfr-TH310942","name":"Mitengo Health Centre","type":"cham","lat":-16.11123,"lng":35.24591,"district":"Thyolo"},{"id":"mhfr-LL040945","name":"Mitundu","type":"govt","lat":-14.24776,"lng":33.77465,"district":"Lilongwe"},{"id":"mhfr-DE030946","name":"Mjini","type":"govt","lat":-14.044388,"lng":34.238785,"district":"Dedza"},{"id":"mhfr-MC010947","name":"Mkanda","type":"govt","lat":-13.5146,"lng":32.96085,"district":"Mchinji"},{"id":"mhfr-KU070950","name":"Mkhota","type":"govt","lat":-13.56651,"lng":33.34348,"district":"Kasungu"},{"id":"mhfr-NT080951","name":"Mkhuzi","type":"govt","lat":-13.3665599,"lng":33.7767254,"district":"Ntchisi"},{"id":"mhfr-PH220952","name":"Mkhwayi","type":"govt","lat":-15.61457,"lng":35.62787,"district":"Phalombe"},{"id":"mhfr-MZ160954","name":"Mkoma","type":"govt","lat":-12.61235,"lng":33.7824,"district":"Mzimba"},{"id":"mhfr-MU210956","name":"Nkomaula health centre","type":"govt","lat":-15.7211,"lng":35.36672,"district":"Mulanje"},{"id":"mhfr-MC190959","name":"Mkwepere","type":"govt","lat":-14.60286,"lng":35.63635,"district":"Machinga"},{"id":"mhfr-LL040960","name":"Mkwinda","type":"govt","lat":-14.177537,"lng":33.748205,"district":"Lilongwe"},{"id":"mhfr-LL040961","name":"Mlale","type":"cham","lat":-14.23011,"lng":33.75658,"district":"Lilongwe"},{"id":"mhfr-BT240962","name":"Mlambe","type":"cham","lat":-15.64466,"lng":35.01733,"district":"Blantyre"},{"id":"mhfr-NT120963","name":"Mlanda","type":"cham","lat":-14.47886,"lng":34.45988,"district":"Ntcheu"},{"id":"mhfr-DE030964","name":"Mlangali","type":"govt","lat":-14.41322,"lng":34.27274,"district":"Dedza"},{"id":"mhfr-NT120965","name":"Mlangeni","type":"govt","lat":-14.67662,"lng":34.53672,"district":"Ntcheu"},{"id":"mhfr-KA150966","name":"Mlare","type":"govt","lat":-10.173157,"lng":34.0358777,"district":"Karonga"},{"id":"mhfr-CP060967","name":"Mulembe","type":"govt","lat":-10.061782,"lng":33.377912,"district":"Chitipa"},{"id":"mhfr-LL040968","name":"Mlodza Seventhday Clinic","type":"cham","lat":-14.007222,"lng":33.8175,"district":"Lilongwe"},{"id":"mhfr-NS300970","name":"Mlolo","type":"govt","lat":-16.41959,"lng":35.1525,"district":"Nsanje"},{"id":"mhfr-MC190971","name":"Mlomba","type":"govt","lat":-15.01903,"lng":35.47708,"district":"Machinga"},{"id":"mhfr-RU140972","name":"Mlowe","type":"cham","lat":-10.76429,"lng":34.19488,"district":"Rumphi"},{"id":"mhfr-NT120973","name":"Muluma","type":"cham","lat":-14.71894,"lng":34.6355,"district":"Ntcheu"},{"id":"mhfr-NT080974","name":"Mndinda","type":"govt","lat":-13.2474,"lng":34.05675,"district":"Ntchisi"},{"id":"mhfr-LL040975","name":"Ngwangwa","type":"govt","lat":-13.842277,"lng":33.684124,"district":"Lilongwe"},{"id":"mhfr-KU070976","name":"Mnyanja","type":"govt","lat":-12.722316,"lng":33.485857,"district":"Kasungu"},{"id":"mhfr-TH310978","name":"Molere","type":"cham","lat":-16.21758,"lng":35.13552,"district":"Thyolo"},{"id":"mhfr-MC190979","name":"Molipa","type":"govt","lat":-15.051421,"lng":35.390936,"district":"Machinga"},{"id":"mhfr-DA020980","name":"Mondwe","type":"govt","lat":-13.49199,"lng":33.443872,"district":"Dowa"},{"id":"mhfr-MG200982","name":"Monkey bay Community Hospital","type":"govt","lat":-14.0846593,"lng":34.9107539,"district":"Mangochi"},{"id":"mhfr-MZ160986","name":"Moyale","type":"govt","lat":-11.4597562,"lng":34.0383107,"district":"Mzimba"},{"id":"mhfr-MU210989","name":"kwa Gunde","type":"govt","lat":-16.1439048,"lng":35.5250625,"district":"Mulanje"},{"id":"mhfr-NK100991","name":"Mpamantha","type":"govt","lat":-13.06926,"lng":34.25224,"district":"Nkhotakota"},{"id":"mhfr-KB050992","name":"Mpamba","type":"govt","lat":-11.54697,"lng":34.19727,"district":"Nkhata Bay"},{"id":"mhfr-PH220993","name":"Mpasa","type":"govt","lat":-15.7578844,"lng":35.611432,"district":"Phalombe"},{"id":"mhfr-KU070994","name":"Mpasadzi","type":"govt","lat":-12.583194,"lng":33.381861,"district":"Kasungu"},{"id":"mhfr-KA150995","name":"Mpata","type":"govt","lat":-9.96062,"lng":33.81525,"district":"Karonga"},{"id":"mhfr-CP060997","name":"Mpemba","type":"govt","lat":-10.134558,"lng":33.521683,"district":"Chitipa"},{"id":"mhfr-BT240998","name":"Mpemba","type":"govt","lat":-15.87385,"lng":34.9523,"district":"Blantyre"},{"id":"mhfr-DE031001","name":"Mphathi","type":"govt","lat":-14.45516,"lng":34.07683,"district":"Dedza"},{"id":"mhfr-NT121003","name":"Mphepozinayi","type":"govt","lat":-14.73586,"lng":34.66115,"district":"Ntcheu"},{"id":"mhfr-MZ161004","name":"Mpherembe","type":"govt","lat":-11.28806,"lng":33.61431,"district":"Mzimba"},{"id":"mhfr-MZ161006","name":"Mphofwa","type":"govt","lat":-11.680054,"lng":33.620114,"district":"Mzimba"},{"id":"mhfr-RU141007","name":"Mphompha","type":"govt","lat":-11.00662,"lng":34.07305,"district":"Rumphi"},{"id":"mhfr-DE031008","name":"Mphunzi","type":"cham","lat":-14.37933,"lng":34.17539,"district":"Dedza"},{"id":"mhfr-BT241009","name":"Mpingo Maternity","type":"govt","lat":-15,"lng":33,"district":"Blantyre"},{"id":"mhfr-MC191010","name":"Mpiri","type":"cham","lat":-14.7721997,"lng":35.606633,"district":"Machinga"},{"id":"mhfr-DA021013","name":"Mponela","type":"govt","lat":-13.53264,"lng":33.73713,"district":"Dowa"},{"id":"mhfr-MC191014","name":"Mposa","type":"cham","lat":-15.14906,"lng":35.51849,"district":"Machinga"},{"id":"mhfr-DA021015","name":"Msakambewa","type":"govt","lat":-13.55296,"lng":33.89719,"district":"Dowa"},{"id":"mhfr-LL041016","name":"Daeyang","type":"cham","lat":-13.78,"lng":33.91,"district":"Lilongwe"},{"id":"mhfr-NK101018","name":"Msenjere","type":"govt","lat":-12.7324996,"lng":34.1705763,"district":"Nkhotakota"},{"id":"mhfr-MZ161019","name":"Msese","type":"govt","lat":-12.36,"lng":33.74,"district":"Mzimba"},{"id":"mhfr-MU211020","name":"msithe","type":"cham","lat":-16.0026202,"lng":35.413573,"district":"Mulanje"},{"id":"mhfr-CP061021","name":"Msumbe","type":"cham","lat":-9.75123,"lng":33.67563,"district":"Chitipa"},{"id":"mhfr-DE031023","name":"Mtakataka","type":"govt","lat":-14.22745,"lng":34.51474,"district":"Dedza"},{"id":"mhfr-MZ161029","name":"Mtende","type":"govt","lat":-11.49724,"lng":33.54894,"district":"Mzimba"},{"id":"mhfr-DE031030","name":"Mtendere Community Hospital","type":"cham","lat":-14.32271,"lng":34.09373,"district":"Dedza"},{"id":"mhfr-LL041034","name":"Mtenthela","type":"govt","lat":-14.10884,"lng":34.00567,"district":"Lilongwe"},{"id":"mhfr-DA021035","name":"Mtengowanthenga","type":"cham","lat":-13.67165,"lng":33.77623,"district":"Dowa"},{"id":"mhfr-MG201036","name":"Mtimabi","type":"govt","lat":-14.6110653,"lng":35.0826738,"district":"Mangochi"},{"id":"mhfr-NT121037","name":"Ntonda","type":"cham","lat":-15.02,"lng":34.75144,"district":"Ntcheu"},{"id":"mhfr-NK101038","name":"Mtosa","type":"govt","lat":-13.43876,"lng":34.27365,"district":"Nkhotakota"},{"id":"mhfr-KU071039","name":"Mtunthama","type":"cham","lat":-13.03145,"lng":33.68209,"district":"Kasungu"},{"id":"mhfr-MZ161040","name":"Mtwalo","type":"govt","lat":-11.39671,"lng":33.74591,"district":"Mzimba"},{"id":"mhfr-DE031041","name":"Mua Mission hospital","type":"cham","lat":-14.28307,"lng":34.50972,"district":"Dedza"},{"id":"mhfr-MU211045","name":"Mulanje Hospital","type":"govt","lat":-16.02549,"lng":35.50785,"district":"Mulanje"},{"id":"mhfr-MU211046","name":"ku Ulongwe","type":"cham","lat":-16.0208672,"lng":35.4646005,"district":"Mulanje"},{"id":"mhfr-MG201047","name":"Mulibwanji Community Hospital","type":"cham","lat":-14.5115273,"lng":35.5880048,"district":"Mangochi"},{"id":"mhfr-MU211048","name":"Mulomba","type":"govt","lat":-15.76535,"lng":35.51182,"district":"Mulanje"},{"id":"mhfr-MU211049","name":"Muloza","type":"govt","lat":-16.08016,"lng":35.71573,"district":"Mulanje"},{"id":"mhfr-DA021060","name":"Mvera Army","type":"govt","lat":-13.77963,"lng":34.1398,"district":"Dowa"},{"id":"mhfr-DA021061","name":"Mvera mission","type":"cham","lat":-13.73673,"lng":34.12876,"district":"Dowa"},{"id":"mhfr-CK271071","name":"Mwanawanjovu","type":"govt","lat":-16.515473,"lng":35.029718,"district":"Chikwawa"},{"id":"mhfr-ZA231073","name":"Mwandama","type":"govt","lat":-15.49803,"lng":35.18803,"district":"Zomba"},{"id":"mhfr-PH221074","name":"Mwanga","type":"cham","lat":-15.64601,"lng":35.532758,"district":"Phalombe"},{"id":"mhfr-DA021075","name":"Mwangala","type":"govt","lat":-13.487476,"lng":33.92326,"district":"Dowa"},{"id":"mhfr-NK101077","name":"Mwasambo","type":"govt","lat":-13.3066933,"lng":34.118526,"district":"Nkhotakota"},{"id":"mhfr-MW281079","name":"Banja la mtsogolo","type":"govt","lat":-15.59747,"lng":34.51505,"district":"Mwanza"},{"id":"mhfr-MW281081","name":"Mwanza District Hospital","type":"govt","lat":-15.59118,"lng":34.50998,"district":"Mwanza"},{"id":"mhfr-MG201083","name":"Chiunda Clinic","type":"govt","lat":-14.755091,"lng":35.112111,"district":"Mangochi"},{"id":"mhfr-KB051085","name":"Mwaya","type":"govt","lat":-11.97658,"lng":34.07603,"district":"Nkhata Bay"},{"id":"mhfr-RU141087","name":"mwazisi","type":"govt","lat":-10.94356,"lng":33.5792,"district":"Rumphi"},{"id":"mhfr-BK171089","name":"Mwima","type":"govt","lat":-14.92967,"lng":35.18498,"district":"Balaka"},{"id":"mhfr-MZ161090","name":"Mzalangwe","type":"govt","lat":-11.61228,"lng":33.5651,"district":"Mzimba"},{"id":"mhfr-NT121091","name":"Mzama","type":"cham","lat":-14.89375,"lng":34.58597,"district":"Ntcheu"},{"id":"mhfr-MZ161092","name":"Mission","type":"cham","lat":-11.4276539,"lng":33.450285,"district":"Mzimba"},{"id":"mhfr-NT081093","name":"Mzandu","type":"govt","lat":-13.48916,"lng":34.02738,"district":"Ntchisi"},{"id":"mhfr-KB051094","name":"Mzenga","type":"govt","lat":-11.73249,"lng":34.07401,"district":"Nkhata Bay"},{"id":"mhfr-MZ161095","name":"Ku Boma","type":"govt","lat":-11.89805,"lng":33.58421,"district":"Mzimba"},{"id":"mhfr-RU141097","name":"Mzokoto","type":"govt","lat":-10.90777,"lng":34.02735,"district":"Rumphi"},{"id":"mhfr-MZ161098","name":"Central","type":"govt","lat":-11.4235559,"lng":33.9943344,"district":"Mzimba"},{"id":"mhfr-MZ161099","name":"Prison","type":"govt","lat":-11.46474,"lng":34.01991,"district":"Mzimba"},{"id":"mhfr-MZ161100","name":"Mapale","type":"govt","lat":-11.4617887,"lng":34.0151188,"district":"Mzimba"},{"id":"mhfr-MZ161101","name":"Police","type":"govt","lat":-11.46211,"lng":34.02489,"district":"Mzimba"},{"id":"mhfr-CP061104","name":"Naching'anda","type":"govt","lat":-9.684917,"lng":33.418491,"district":"Chitipa"},{"id":"mhfr-CP061105","name":"Nachipananga off Nthalire road to the west","type":"govt","lat":-9.872516,"lng":33.381377,"district":"Chitipa"},{"id":"mhfr-ZA231106","name":"Chopi","type":"govt","lat":-15.35785,"lng":35.3849,"district":"Zomba"},{"id":"mhfr-DE031107","name":"Nakalanzi H/C","type":"cham","lat":-14.20233,"lng":34.54819,"district":"Dedza"},{"id":"mhfr-DA021108","name":"Nalunga","type":"govt","lat":-13.64378,"lng":34.0567,"district":"Dowa"},{"id":"mhfr-ZA231109","name":"Namadidi","type":"govt","lat":-15.41079,"lng":35.24736,"district":"Zomba"},{"id":"mhfr-CR261110","name":"Namadzi","type":"govt","lat":-15.54663,"lng":35.18761,"district":"Chiradzulu"},{"id":"mhfr-MG201113","name":"Namalaka","type":"cham","lat":-14.1236333,"lng":35.1929633,"district":"Mangochi"},{"id":"mhfr-MC191115","name":"Mission","type":"cham","lat":-14.88211,"lng":35.48324,"district":"Machinga"},{"id":"mhfr-MC191116","name":"Namanja","type":"govt","lat":-14.9646301,"lng":35.6793543,"district":"Machinga"},{"id":"mhfr-BK171117","name":"Namanolo","type":"govt","lat":-15.00071,"lng":35.19004,"district":"Balaka"},{"id":"mhfr-MU211118","name":"Namasalima","type":"cham","lat":-15.80407,"lng":35.3491,"district":"Mulanje"},{"id":"mhfr-ZA231119","name":"Namasalima","type":"govt","lat":-15.23142,"lng":35.48876,"district":"Zomba"},{"id":"mhfr-PH221120","name":"Nambazo","type":"govt","lat":-15.5566963,"lng":35.8193749,"district":"Phalombe"},{"id":"mhfr-BK171121","name":"Nambira health post","type":"govt","lat":-14.80259,"lng":35.06411,"district":"Balaka"},{"id":"mhfr-PH221122","name":"Nambiti","type":"govt","lat":-15.802794,"lng":35.763953,"district":"Phalombe"},{"id":"mhfr-LL041124","name":"Nambuma","type":"cham","lat":-13.72409,"lng":33.55789,"district":"Lilongwe"},{"id":"mhfr-BK171125","name":"Nandumbo","type":"govt","lat":-14.85169,"lng":35.22552,"district":"Balaka"},{"id":"mhfr-ZA231126","name":"Namikango","type":"cham","lat":-15.47723,"lng":35.24056,"district":"Zomba"},{"id":"mhfr-BT241127","name":"Namikoko","type":"govt","lat":-15.48651,"lng":35.07379,"district":"Blantyre"},{"id":"mhfr-CR261130","name":"Namitambo","type":"govt","lat":-15.7106126,"lng":35.1741967,"district":"Chiradzulu"},{"id":"mhfr-MC011131","name":"Namizana","type":"govt","lat":-14.00195,"lng":33.2463,"district":"Mchinji"},{"id":"mhfr-MU211132","name":"Namphungo","type":"govt","lat":-15.80407,"lng":35.3491,"district":"Mulanje"},{"id":"mhfr-MU211133","name":"namulenga health centre","type":"cham","lat":-15.86563,"lng":35.32718,"district":"Mulanje"},{"id":"mhfr-MG201134","name":"Namwera","type":"govt","lat":-14.3637,"lng":35.50221,"district":"Mangochi"},{"id":"mhfr-MG201136","name":"Namcholi","type":"govt","lat":-14.4783763,"lng":35.5870485,"district":"Mangochi"},{"id":"mhfr-MG201137","name":"Nangalamu","type":"govt","lat":-14.6110653,"lng":35.0826738,"district":"Mangochi"},{"id":"mhfr-MG201138","name":"Nankhwali","type":"govt","lat":-15.614421,"lng":35.6281461,"district":"Mangochi"},{"id":"mhfr-MG201139","name":"Nankumba","type":"govt","lat":-14.36521,"lng":34.82361,"district":"Mangochi"},{"id":"mhfr-ZA231140","name":"Nasawa","type":"govt","lat":-15.6023,"lng":35.25956,"district":"Zomba"},{"id":"mhfr-MU211143","name":"Naphimba Health Centre","type":"govt","lat":-16.045639,"lng":35.445462,"district":"Mulanje"},{"id":"mhfr-LL041146","name":"Nthenje","type":"govt","lat":-14.08504,"lng":33.90823,"district":"Lilongwe"},{"id":"mhfr-MC191148","name":"Nayinunje","type":"govt","lat":-14.7406,"lng":35.56503,"district":"Machinga"},{"id":"mhfr-MC191149","name":"Nayuchi","type":"govt","lat":-14.97585,"lng":35.86726,"district":"Machinga"},{"id":"mhfr-PH221150","name":"Gogo Nazombe","type":"govt","lat":-15.7525616,"lng":35.7777647,"district":"Phalombe"},{"id":"mhfr-CK271152","name":"ndakwera health centre","type":"govt","lat":-16.22357,"lng":34.68896,"district":"Chikwawa"},{"id":"mhfr-LL041155","name":"Ndaula","type":"govt","lat":-14.1385,"lng":33.50757,"district":"Lilongwe"},{"id":"mhfr-SA091156","name":"Ndimoyo","type":"govt","lat":-13.78274,"lng":34.45888,"district":"Salima"},{"id":"mhfr-BT241157","name":"BLM Ndirande clinic","type":"govt","lat":-15.77364,"lng":35.03081,"district":"Blantyre"},{"id":"mhfr-BT241158","name":"Ndirande","type":"govt","lat":-15.7781,"lng":35.03946,"district":"Blantyre"},{"id":"mhfr-CR261159","name":"Ndunde","type":"govt","lat":-15.69615,"lng":35.23355,"district":"Chiradzulu"},{"id":"mhfr-NE291160","name":"Neno District Hospital","type":"govt","lat":-15.39524,"lng":34.65349,"district":"Neno"},{"id":"mhfr-NE291161","name":"Neno Parish Health Center","type":"cham","lat":-15.43701,"lng":34.60843,"district":"Neno"},{"id":"mhfr-LL041162","name":"new State house","type":"govt","lat":-13.96051,"lng":33.85089,"district":"Lilongwe"},{"id":"mhfr-RU141165","name":"Ng'onga","type":"govt","lat":-10.93922,"lng":33.94348,"district":"Rumphi"},{"id":"mhfr-CK271167","name":"Ngabu","type":"govt","lat":-16.45928,"lng":34.89253,"district":"Chikwawa"},{"id":"mhfr-CK271168","name":"Ngabu Sda Health Centre","type":"cham","lat":-16.46516,"lng":34.87901,"district":"Chikwawa"},{"id":"mhfr-NK101169","name":"Ngala","type":"govt","lat":-12.36529,"lng":34.06552,"district":"Nkhotakota"},{"id":"mhfr-MG201170","name":"Ngatala","type":"govt","lat":-14.65773,"lng":35.07712,"district":"Mangochi"},{"id":"mhfr-KA151171","name":"Ngana","type":"govt","lat":-9.62021,"lng":33.69891,"district":"Karonga"},{"id":"mhfr-KA151173","name":"Ngara","type":"govt","lat":-10.225176,"lng":34.10207,"district":"Karonga"},{"id":"mhfr-MG201174","name":"Ngatala","type":"govt","lat":-14.657656,"lng":35.077156,"district":"Mangochi"},{"id":"mhfr-KA151175","name":"Ngisi","type":"govt","lat":-9.595399,"lng":33.7218983,"district":"Karonga"},{"id":"mhfr-SA091176","name":"Kwa Bishop","type":"cham","lat":-14.08926,"lng":34.50896,"district":"Salima"},{"id":"mhfr-MC191177","name":"Ngokwe","type":"govt","lat":-14.7067782,"lng":35.8015545,"district":"Machinga"},{"id":"mhfr-MU211178","name":"Ngolowera","type":"cham","lat":-16.0456627,"lng":35.4452708,"district":"Mulanje"},{"id":"mhfr-LL041179","name":"Chidalanda","type":"govt","lat":-13.77509,"lng":33.64018,"district":"Lilongwe"},{"id":"mhfr-ZA231180","name":"Ngotangota","type":"govt","lat":-15.295999,"lng":35.82282,"district":"Zomba"},{"id":"mhfr-ZA231182","name":"Ngwelero","type":"govt","lat":-15.66645,"lng":35.42718,"district":"Zomba"},{"id":"mhfr-MZ161187","name":"Njuyu","type":"govt","lat":-11.52455,"lng":33.69953,"district":"Mzimba"},{"id":"mhfr-CR261188","name":"Nkalo","type":"govt","lat":-15.97065,"lng":35.30997,"district":"Chiradzulu"},{"id":"mhfr-ZA231189","name":"Nkasala","type":"cham","lat":-15.32778,"lng":35.21661,"district":"Zomba"},{"id":"mhfr-KU071191","name":"Nkhamenya","type":"cham","lat":-12.56606,"lng":33.50098,"district":"Kasungu"},{"id":"mhfr-KB051193","name":"Mkondezi","type":"govt","lat":-11.60159,"lng":34.29872,"district":"Nkhata Bay"},{"id":"mhfr-TH311195","name":"Nkhataombere","type":"govt","lat":-16.323986,"lng":35.264013,"district":"Thyolo"},{"id":"mhfr-LL041197","name":"Nkhoma","type":"cham","lat":-14.04389,"lng":34.1036,"district":"Lilongwe"},{"id":"mhfr-RU141199","name":"Nkhomboli","type":"govt","lat":-10.775985,"lng":34.039194,"district":"Rumphi"},{"id":"mhfr-MZ161200","name":"Nkholongo","type":"cham","lat":-11.3901,"lng":33.98514,"district":"Mzimba"},{"id":"mhfr-NK101202","name":"Nkhotakota","type":"govt","lat":-12.92508,"lng":34.27939,"district":"Nkhotakota"},{"id":"mhfr-PH221203","name":"Nkhulambe","type":"govt","lat":-15.85977618,"lng":35.751342,"district":"Phalombe"},{"id":"mhfr-NK101204","name":"Nkhunga","type":"govt","lat":-12.48023,"lng":34.10842,"district":"Nkhotakota"},{"id":"mhfr-MZ161205","name":"Khuyukuyu","type":"govt","lat":-11.22183,"lng":33.91461,"district":"Mzimba"},{"id":"mhfr-MC011206","name":"Nkhwazi","type":"govt","lat":-13.92369,"lng":33.22672,"district":"Mchinji"},{"id":"mhfr-CK271207","name":"Nkombedzi Health Centre","type":"govt","lat":-16.47944,"lng":34.72431,"district":"Chikwawa"},{"id":"mhfr-MG201208","name":"Nkope","type":"cham","lat":-14.211004,"lng":35.032449,"district":"Mangochi"},{"id":"mhfr-CK271210","name":"Nkumaniza","type":"govt","lat":-16.47944,"lng":34.72431,"district":"Chikwawa"},{"id":"mhfr-TH311212","name":"Nsabwe Health Centre","type":"govt","lat":-16.043512,"lng":34.952745,"district":"Thyolo"},{"id":"mhfr-LL041213","name":"Nsaru","type":"govt","lat":-13.8855,"lng":33.5043,"district":"Lilongwe"},{"id":"mhfr-NE291214","name":"Nsambe health centre","type":"cham","lat":-15.26135,"lng":34.6135,"district":"Neno"},{"id":"mhfr-MC191215","name":"Mission","type":"cham","lat":-14.99491,"lng":35.49477,"district":"Machinga"},{"id":"mhfr-NS301216","name":"Nsanje","type":"govt","lat":-16.91794,"lng":35.26001,"district":"Nsanje"},{"id":"mhfr-NT121218","name":"Nsipe","type":"cham","lat":-14.86434,"lng":34.75233,"district":"Ntcheu"},{"id":"mhfr-NT121219","name":"Nsiyaludzu","type":"govt","lat":-14.93648,"lng":34.87425,"district":"Ntcheu"},{"id":"mhfr-CK271220","name":"Nsomo","type":"govt","lat":-16.036946,"lng":34.72376,"district":"Chikwawa"},{"id":"mhfr-MC191222","name":"Ntaja","type":"govt","lat":-14.86828,"lng":35.52911,"district":"Machinga"},{"id":"mhfr-DE031223","name":"Mtakataka","type":"govt","lat":-14.22581,"lng":34.51119,"district":"Dedza"},{"id":"mhfr-NT121225","name":"Ntcheu District Hospital","type":"govt","lat":-14.817077,"lng":34.6382088,"district":"Ntcheu"},{"id":"mhfr-NT081226","name":"Ntchisi","type":"govt","lat":-13.36345,"lng":33.91061,"district":"Ntchisi"},{"id":"mhfr-CP061228","name":"Nthalire","type":"govt","lat":-10.34894,"lng":33.64394,"district":"Chitipa"},{"id":"mhfr-RU141229","name":"Nthenje","type":"cham","lat":-10.91788,"lng":33.98786,"district":"Rumphi"},{"id":"mhfr-NT081231","name":"Nthondo","type":"govt","lat":-13.24723,"lng":34.00699,"district":"Ntchisi"},{"id":"mhfr-LL041232","name":"Nthondo","type":"govt","lat":-14.03153,"lng":33.44849,"district":"Lilongwe"},{"id":"mhfr-MC191234","name":"Ntholowa","type":"cham","lat":-14.99492,"lng":35.57325,"district":"Machinga"},{"id":"mhfr-KB051235","name":"Nthungwa","type":"govt","lat":-11.66014,"lng":33.80046,"district":"Nkhata Bay"},{"id":"mhfr-MC191238","name":"Nyambi","type":"govt","lat":-14.68999,"lng":35.57257,"district":"Machinga"},{"id":"mhfr-NS301240","name":"Nyamithuthu","type":"govt","lat":-16.68213,"lng":35.19821,"district":"Nsanje"},{"id":"mhfr-LL041243","name":"Nyanja","type":"govt","lat":-14.138646,"lng":33.942874,"district":"Lilongwe"},{"id":"mhfr-BK171244","name":"Nyanyala  under 5 clinic","type":"govt","lat":-15.189789,"lng":34.921519,"district":"Balaka"},{"id":"mhfr-KA151246","name":"Nyungwe","type":"govt","lat":-10.28546,"lng":34.10851,"district":"Karonga"},{"id":"mhfr-KU071247","name":"Ofesi","type":"govt","lat":-12.77939,"lng":33.54904,"district":"Kasungu"},{"id":"mhfr-KA151248","name":"Old Hospital","type":"govt","lat":-9.932075,"lng":33.940017,"district":"Karonga"},{"id":"mhfr-MZ161251","name":"Padley PIO","type":"cham","lat":-11.4999552,"lng":33.9428955,"district":"Mzimba"},{"id":"mhfr-SA091253","name":"Parachute Battalion","type":"govt","lat":-13.74314,"lng":34.58826,"district":"Salima"},{"id":"mhfr-LL041256","name":"Partners","type":"govt","lat":-14.02341,"lng":33.78783,"district":"Lilongwe"},{"id":"mhfr-CK271259","name":"Pende","type":"govt","lat":-16.485763,"lng":34.820457,"district":"Chikwawa"},{"id":"mhfr-BT241260","name":"Joshua Clinic","type":"govt","lat":-15.81,"lng":34.96,"district":"Blantyre"},{"id":"mhfr-PH221263","name":"Phalombe","type":"govt","lat":-15.80677,"lng":35.64918,"district":"Phalombe"},{"id":"mhfr-BK171264","name":"Phalula","type":"cham","lat":-15.22557,"lng":34.89322,"district":"Balaka"},{"id":"mhfr-NT121265","name":"Phanga","type":"govt","lat":-14.34498,"lng":34.72016,"district":"Ntcheu"},{"id":"mhfr-BK171269","name":"Phimbi","type":"govt","lat":-15.25075,"lng":35.10716,"district":"Balaka"},{"id":"mhfr-LL041271","name":"Phirilanjuzi","type":"govt","lat":-14.153696,"lng":33.575306,"district":"Lilongwe"},{"id":"mhfr-MG201272","name":"Damu","type":"govt","lat":-14.5880382,"lng":34.8985585,"district":"Mangochi"},{"id":"mhfr-NS301274","name":"Phokera","type":"govt","lat":-16.62831,"lng":35.15663,"district":"Nsanje"},{"id":"mhfr-RU141276","name":"Phuno","type":"govt","lat":-11.027859,"lng":34.074571,"district":"Rumphi"},{"id":"mhfr-BT241279","name":"Evangelical","type":"cham","lat":-15.89,"lng":35.07,"district":"Blantyre"},{"id":"mhfr-CR261281","name":"PIM","type":"cham","lat":-15.7530736,"lng":35.1922365,"district":"Chiradzulu"},{"id":"mhfr-ZA231282","name":"Pirimiti","type":"cham","lat":-15.48302,"lng":35.45048,"district":"Zomba"},{"id":"mhfr-BT241293","name":"Queen Elizabeth Central Hospital","type":"govt","lat":-15.80214,"lng":35.021,"district":"Blantyre"},{"id":"mhfr-KB051300","name":"Ruarwe dispensary","type":"govt","lat":-11.11377,"lng":34.23093,"district":"Nkhata Bay"},{"id":"mhfr-RU141302","name":"Rumphi","type":"govt","lat":-11.01993,"lng":33.85422,"district":"Rumphi"},{"id":"mhfr-ZA231305","name":"Sadzi","type":"govt","lat":-15.40882,"lng":35.31969,"district":"Zomba"},{"id":"mhfr-BT241307","name":"DREAM Saint Egidio","type":"cham","lat":-15.836643204873754,"lng":34.99651927531076,"district":"Blantyre"},{"id":"mhfr-MU211308","name":"Salamba","type":"cham","lat":-16.1079577,"lng":35.4626325,"district":"Mulanje"},{"id":"mhfr-SA091309","name":"Admarc","type":"govt","lat":-13.78623,"lng":34.46243,"district":"Salima"},{"id":"mhfr-SA091310","name":"SASO","type":"govt","lat":-13.77165,"lng":34.44055,"district":"Salima"},{"id":"mhfr-SA091312","name":"District hospital","type":"govt","lat":-13.76214,"lng":34.42199,"district":"Salima"},{"id":"mhfr-NT081314","name":"Sambakusi","type":"govt","lat":-13.349658,"lng":33.983158,"district":"Ntchisi"},{"id":"mhfr-KA151317","name":"Sangiro","type":"cham","lat":-10.51609,"lng":34.21346,"district":"Karonga"},{"id":"mhfr-NS301319","name":"Sankhulani","type":"govt","lat":-16.456861,"lng":35.258889,"district":"Nsanje"},{"id":"mhfr-KU071320","name":"Santhe","type":"govt","lat":-13.46712,"lng":33.39378,"district":"Kasungu"},{"id":"mhfr-NT121327","name":"Senzani","type":"cham","lat":-15.07865,"lng":34.85783,"district":"Ntcheu"},{"id":"mhfr-NT121329","name":"Sharpe Valley Health Centre","type":"cham","lat":-14.61103,"lng":34.7369,"district":"Ntcheu"},{"id":"mhfr-KA151331","name":"Silo","type":"govt","lat":-9.938145,"lng":33.823415,"district":"Karonga"},{"id":"mhfr-KU071332","name":"Simlemba Health Centre","type":"govt","lat":-12.74081,"lng":33.6764,"district":"Kasungu"},{"id":"mhfr-MG201334","name":"Chigweche","type":"cham","lat":-14.3852808,"lng":35.5355813,"district":"Mangochi"},{"id":"mhfr-BT241336","name":"Soche Clinic","type":"govt","lat":-15.85726,"lng":35.02761,"district":"Blantyre"},{"id":"mhfr-CP061340","name":"Near Sokola Primary school","type":"govt","lat":-9.722825,"lng":33.583947,"district":"Chitipa"},{"id":"mhfr-NT121341","name":"Salomon clinic","type":"cham","lat":-14.70821,"lng":34.87077,"district":"Ntcheu"},{"id":"mhfr-MG201342","name":"Somba","type":"govt","lat":-14.64701,"lng":35.53803,"district":"Mangochi"},{"id":"mhfr-NS301343","name":"Sorgin","type":"govt","lat":-16.54278,"lng":35.01159,"district":"Nsanje"},{"id":"mhfr-BT241347","name":"South Lunzu","type":"govt","lat":-15.72678,"lng":35.05471,"district":"Blantyre"},{"id":"mhfr-NT121349","name":"Mikoke","type":"cham","lat":-14.99902,"lng":34.82815,"district":"Ntcheu"},{"id":"mhfr-NK101351","name":"St. Anne's","type":"cham","lat":-10.4130292,"lng":34.2111016,"district":"Nkhotakota"},{"id":"mhfr-LK181355","name":"St. Marys","type":"govt","lat":-12.0293441,"lng":34.62425,"district":"Likoma"},{"id":"mhfr-CK271356","name":"Montfort","type":"cham","lat":-16.25716,"lng":34.86831,"district":"Chikwawa"},{"id":"mhfr-BT241357","name":"St Vincent","type":"cham","lat":-15.91421,"lng":34.94984,"district":"Blantyre"},{"id":"mhfr-KU071358","name":"St. Andrews","type":"cham","lat":-13.03263,"lng":33.67114,"district":"Kasungu"},{"id":"mhfr-KA151359","name":"Vinthukutu","type":"cham","lat":-10.41184,"lng":34.21188,"district":"Karonga"},{"id":"mhfr-NK101360","name":"St. Annies","type":"cham","lat":-12.92747,"lng":34.29554,"district":"Nkhotakota"},{"id":"mhfr-KU071361","name":"St. Faith Anglican Clinic","type":"cham","lat":-12.92886,"lng":33.7952,"district":"Kasungu"},{"id":"mhfr-LL041362","name":"Namitondo","type":"cham","lat":-13.98418,"lng":33.35128,"district":"Lilongwe"},{"id":"mhfr-TH311363","name":"St. Hellena Oakley (Ntambanyama)","type":"cham","lat":-16.32104,"lng":35.20741,"district":"Thyolo"},{"id":"mhfr-MZ161364","name":"St. John of God","type":"cham","lat":-11.45571,"lng":34.01381,"district":"Mzimba"},{"id":"mhfr-MZ161366","name":"St. Johns","type":"cham","lat":-11.45161,"lng":34.02806,"district":"Mzimba"},{"id":"mhfr-CR261369","name":"Nguludi","type":"cham","lat":-15.80173,"lng":35.16825,"district":"Chiradzulu"},{"id":"mhfr-ZA231371","name":"Malosa","type":"cham","lat":-15.20914,"lng":35.35291,"district":"Zomba"},{"id":"mhfr-MG201374","name":"St. Martins Mission Hospital","type":"cham","lat":-14.3478865,"lng":35.294217,"district":"Mangochi"},{"id":"mhfr-MC011376","name":"St. Michaels community","type":"cham","lat":-13.88998,"lng":33.07557,"district":"Mchinji"},{"id":"mhfr-RU141377","name":"St. Patricks","type":"cham","lat":-11.02297,"lng":33.87319,"district":"Rumphi"},{"id":"mhfr-ZA231378","name":"State house","type":"govt","lat":-15.38153,"lng":35.31027,"district":"Zomba"},{"id":"mhfr-PH221388","name":"Sukasanje","type":"cham","lat":-15.93052,"lng":35.765755,"district":"Phalombe"},{"id":"mhfr-RU141395","name":"Tcharo","type":"cham","lat":-10.96193,"lng":34.22225,"district":"Rumphi"},{"id":"mhfr-MC011397","name":"Tembwe","type":"govt","lat":-13.90113,"lng":33.06226,"district":"Mchinji"},{"id":"mhfr-NS301399","name":"Mpatsa","type":"govt","lat":-16.73308,"lng":35.27015,"district":"Nsanje"},{"id":"mhfr-MW281401","name":"Thambani","type":"govt","lat":-15.72609,"lng":34.39953,"district":"Mwanza"},{"id":"mhfr-SA091404","name":"Thavite","type":"cham","lat":-13.498,"lng":34.26122,"district":"Salima"},{"id":"mhfr-RU141405","name":"Thazima","type":"govt","lat":-10.8298,"lng":33.592408,"district":"Rumphi"},{"id":"mhfr-TH311410","name":"Thekerani Rural Hospital","type":"govt","lat":-16.32104,"lng":35.20741,"district":"Thyolo"},{"id":"mhfr-MU211411","name":"Thembe Health Centre","type":"cham","lat":-16.06936,"lng":35.63033,"district":"Mulanje"},{"id":"mhfr-CK271413","name":"Therere","type":"govt","lat":-16.36776,"lng":34.682238,"district":"Chikwawa"},{"id":"mhfr-CP061414","name":"Therere","type":"govt","lat":-10.417667,"lng":33.663209,"district":"Chitipa"},{"id":"mhfr-TH311415","name":"Thomas Health Centre","type":"cham","lat":-16.02878,"lng":34.97881,"district":"Thyolo"},{"id":"mhfr-ZA231416","name":"Thondwe","type":"govt","lat":-15.48458,"lng":35.23696,"district":"Zomba"},{"id":"mhfr-DA021418","name":"Thonje","type":"govt","lat":-13.72624,"lng":34.23725,"district":"Dowa"},{"id":"mhfr-KB051420","name":"Thoto","type":"govt","lat":-11.45315,"lng":34.27732,"district":"Nkhata Bay"},{"id":"mhfr-CR261424","name":"Thumbwe","type":"govt","lat":-15.76823,"lng":35.24849,"district":"Chiradzulu"},{"id":"mhfr-MZ161425","name":"Thunduwike","type":"govt","lat":-11.17665,"lng":33.57636,"district":"Mzimba"},{"id":"mhfr-TH311428","name":"Thyolo Hospital","type":"govt","lat":-16.06937,"lng":35.14806,"district":"Thyolo"},{"id":"mhfr-KA151433","name":"Tilola","type":"govt","lat":-10.329445,"lng":34.175349,"district":"Karonga"},{"id":"mhfr-NT121444","name":"Tsangano","type":"cham","lat":-15.17401,"lng":34.61117,"district":"Ntcheu"},{"id":"mhfr-DE031445","name":"Tsoyo","type":"govt","lat":-14.08098,"lng":34.16138,"district":"Dedza"},{"id":"mhfr-KB051446","name":"Tukombo","type":"govt","lat":-11.6080859,"lng":34.3012409,"district":"Nkhata Bay"},{"id":"mhfr-MW281448","name":"Tulonkhondo Health Centre","type":"govt","lat":-15.7496,"lng":34.52277,"district":"Mwanza"},{"id":"mhfr-LL041451","name":"Ukwe","type":"govt","lat":-13.82586,"lng":33.60129,"district":"Lilongwe"},{"id":"mhfr-KA151453","name":"Uliwa","type":"govt","lat":-10.454047,"lng":34.207592,"district":"Karonga"},{"id":"mhfr-BK171454","name":"ulongwe health centre","type":"cham","lat":-14.86247,"lng":35.17734,"district":"Balaka"},{"id":"mhfr-BT241460","name":"Umunthu Foundation private Clinic","type":"govt","lat":-15.84,"lng":35.1,"district":"Blantyre"},{"id":"mhfr-KB051466","name":"Usisya health centre","type":"govt","lat":-11.2394,"lng":34.20941,"district":"Nkhata Bay"},{"id":"mhfr-BK171467","name":"Utale 1","type":"cham","lat":-15.17774,"lng":35.06424,"district":"Balaka"},{"id":"mhfr-BK171468","name":"Utale 2","type":"cham","lat":-15.16981,"lng":35.07239,"district":"Balaka"},{"id":"mhfr-MZ161470","name":"Vibangalala","type":"govt","lat":-12.23433,"lng":33.48619,"district":"Mzimba"},{"id":"mhfr-KA151471","name":"Vilaule","type":"govt","lat":-9.944731,"lng":33.773907,"district":"Karonga"},{"id":"mhfr-PH221481","name":"Waruma","type":"govt","lat":-15.77083,"lng":35.550567,"district":"Phalombe"},{"id":"mhfr-CP061485","name":"Wenya","type":"govt","lat":-10.11286,"lng":33.56344,"district":"Chitipa"},{"id":"mhfr-BT241488","name":"White Dove","type":"cham","lat":-15.767186,"lng":34.999598,"district":"Blantyre"},{"id":"mhfr-KA151489","name":"Wililo","type":"govt","lat":-9.89312,"lng":33.61404,"district":"Karonga"},{"id":"mhfr-KU071490","name":"Wimbe","type":"govt","lat":-12.99126,"lng":33.68694,"district":"Kasungu"},{"id":"mhfr-NK101492","name":"World Medical Fund","type":"govt","lat":-12.91536,"lng":34.28338,"district":"Nkhotakota"},{"id":"mhfr-TH311506","name":"Zoa Health Centre","type":"govt","lat":-16.23764,"lng":35.19992,"district":"Thyolo"},{"id":"mhfr-MZ161507","name":"Zolozolo","type":"govt","lat":-11.4352564,"lng":34.0241716,"district":"Mzimba"},{"id":"mhfr-ZA231509","name":"General","type":"govt","lat":-15.3994,"lng":35.31378,"district":"Zomba"},{"id":"mhfr-ZA231510","name":"Zomba Prison Hospital","type":"govt","lat":-15.39611,"lng":35.31248,"district":"Zomba"},{"id":"mhfr-ZA231513","name":"Mental","type":"govt","lat":-15.39874,"lng":35.30477,"district":"Zomba"},{"id":"mhfr-RU141514","name":"Zunga","type":"cham","lat":-10.84628,"lng":34.21231,"district":"Rumphi"},{"id":"mhfr-NT081515","name":"Chasolo Health Centre","type":"govt","lat":-15.5,"lng":33.5,"district":"Ntchisi"},{"id":"mhfr-NT081516","name":"Chasolo","type":"govt","lat":-13.2512161,"lng":34.3015278,"district":"Ntchisi"},{"id":"mhfr-NT081517","name":"Chinkhande","type":"govt","lat":-13.2512161,"lng":34.3015278,"district":"Ntchisi"},{"id":"mhfr-PH221518","name":"Namasoko Dispensary","type":"govt","lat":-15.739998,"lng":35.604002,"district":"Phalombe"},{"id":"mhfr-BT241520","name":"Ntonda Health Centre","type":"govt","lat":-13.2512161,"lng":34.3015278,"district":"Blantyre"},{"id":"mhfr-BT241521","name":"Kachere","type":"govt","lat":-13.2512161,"lng":34.3015278,"district":"Blantyre"},{"id":"mhfr-BT241522","name":"Khungulu","type":"govt","lat":-13.2512161,"lng":34.3015278,"district":"Blantyre"},{"id":"mhfr-NS301523","name":"New Makhanga","type":"govt","lat":-13.2512161,"lng":34.3015278,"district":"Nsanje"},{"id":"mhfr-BK171524","name":"Balaka OPD Health Centre","type":"govt","lat":-14.990816,"lng":34.960833,"district":"Balaka"},{"id":"mhfr-BT241525","name":"Bangwe Madina Health Centre","type":"govt","lat":-15.824296339104924,"lng":35.0877571105957,"district":"Blantyre"},{"id":"mhfr-KU071526","name":"Bua Dispensary","type":"govt","lat":-13.29372,"lng":33.5385,"district":"Kasungu"},{"id":"mhfr-TH311527","name":"Bvumbwe Research Health Centre","type":"govt","lat":-15.8905,"lng":35.06825,"district":"Thyolo"},{"id":"mhfr-CP061528","name":"Chisasu Health Post","type":"govt","lat":-9.728244458178885,"lng":33.44372240545844,"district":"Chitipa"},{"id":"mhfr-NE291529","name":"Dambe Health Centre","type":"govt","lat":-15.560754954960759,"lng":34.50506393223805,"district":"Neno"},{"id":"mhfr-BT241531","name":"MACRO Chirimba","type":"govt","lat":-15.74368425173074,"lng":35.0139856338501,"district":"Blantyre"},{"id":"mhfr-LL041532","name":"Diamphwi Health Centre","type":"govt","lat":-14.13436,"lng":34.08153,"district":"Lilongwe"},{"id":"mhfr-NK101534","name":"Dwangwa Matiki Clinic","type":"govt","lat":-12.499,"lng":34.154,"district":"Nkhotakota"},{"id":"mhfr-MZ161535","name":"Enukweni Mission Health Centre","type":"cham","lat":-11.18005,"lng":33.88592,"district":"Mzimba"},{"id":"mhfr-NK101536","name":"Kaongozi Health Centre","type":"govt","lat":-12.929080299855837,"lng":34.27805540202219,"district":"Nkhotakota"},{"id":"mhfr-MG201537","name":"Kapire Health Centre","type":"govt","lat":-14.7858441,"lng":34.9994002,"district":"Mangochi"},{"id":"mhfr-KA151538","name":"Kayerekera Health Centre","type":"govt","lat":-9.949218870246149,"lng":33.923395095685144,"district":"Karonga"},{"id":"mhfr-DE031539","name":"Police College Mua","type":"govt","lat":-14.22589,"lng":34.51142,"district":"Dedza"},{"id":"mhfr-SA091541","name":"Senga Bay Baptist Health Centre","type":"cham","lat":-13.74117,"lng":34.59536,"district":"Salima"},{"id":"mhfr-PH221549","name":"Phalombe District Hospital","type":"govt","lat":-15.7170604,"lng":35.7038228,"district":"Phalombe"},{"id":"mhfr-BT241554","name":"Makata Dispensary Ndirande","type":"govt","lat":-15.63006,"lng":35.07975,"district":"Blantyre"},{"id":"mhfr-MZ161563","name":"Manolo Health Centre","type":"govt","lat":-11.898040790369997,"lng":33.58455561169471,"district":"Mzimba"},{"id":"mhfr-LL041564","name":"McGuire Wellness Center (Child Legacy)","type":"govt","lat":-14.067927759309073,"lng":33.471991297500175,"district":"Lilongwe"},{"id":"mhfr-MG201571","name":"Namalweso","type":"cham","lat":-13.95226,"lng":35.137631,"district":"Mangochi"},{"id":"mhfr-MG201573","name":"Njereza","type":"govt","lat":-14.3392413,"lng":35.0317026,"district":"Mangochi"},{"id":"mhfr-MG201574","name":"Cape Mclear Dispensary","type":"govt","lat":-14.0259407,"lng":34.8521397,"district":"Mangochi"},{"id":"mhfr-MG201575","name":"Msaka Dispendary","type":"govt","lat":-14.0792622,"lng":34.8522917,"district":"Mangochi"},{"id":"mhfr-CP061576","name":"St. Cynthia Health Centre","type":"cham","lat":-9.66009731406541,"lng":33.32054151578451,"district":"Chitipa"},{"id":"mhfr-MC011577","name":"Chiwanga Health Post","type":"govt","lat":-14.228096243574074,"lng":33.40584971768343,"district":"Mchinji"},{"id":"mhfr-CP061578","name":"Chinongo","type":"govt","lat":-9.7132226149032,"lng":33.41614710248632,"district":"Chitipa"},{"id":"mhfr-CP061579","name":"Damsca","type":"govt","lat":-9.773001,"lng":33.522856,"district":"Chitipa"},{"id":"mhfr-CP061580","name":"Kasaghala","type":"govt","lat":-9.773001,"lng":33.522856,"district":"Chitipa"},{"id":"mhfr-CP061581","name":"Moto","type":"govt","lat":-9.773001,"lng":33.522856,"district":"Chitipa"},{"id":"mhfr-CP061582","name":"Mtogha","type":"govt","lat":-9.773001,"lng":33.522856,"district":"Chitipa"},{"id":"mhfr-CP061583","name":"St. Clara","type":"govt","lat":-9.9776826,"lng":33.4102447,"district":"Chitipa"},{"id":"mhfr-CP061584","name":"St. Cynthia","type":"govt","lat":-9.773001,"lng":33.522856,"district":"Chitipa"},{"id":"mhfr-CP061585","name":"Zambwe","type":"govt","lat":-9.773001,"lng":33.522856,"district":"Chitipa"},{"id":"mhfr-DE031586","name":"Bema","type":"govt","lat":-14.15069,"lng":34.31881,"district":"Dedza"},{"id":"mhfr-DE031587","name":"Chejero","type":"govt","lat":-14.15069,"lng":34.31881,"district":"Dedza"},{"id":"mhfr-DE031588","name":"Chiluzi","type":"govt","lat":-14.15069,"lng":34.31881,"district":"Dedza"},{"id":"mhfr-DE031589","name":"Chinkombero","type":"govt","lat":-14.15069,"lng":34.31881,"district":"Dedza"},{"id":"mhfr-DA021590","name":"Nadzikhale","type":"govt","lat":-14.15069,"lng":34.31881,"district":"Dowa"},{"id":"mhfr-DE031591","name":"Tchetsa","type":"govt","lat":-14.15069,"lng":34.31881,"district":"Dedza"},{"id":"mhfr-DA021592","name":"Chikhobwe","type":"govt","lat":-13.27878,"lng":33.68392,"district":"Dowa"},{"id":"mhfr-DA021593","name":"Chimwanjati","type":"govt","lat":-13.27878,"lng":33.68392,"district":"Dowa"},{"id":"mhfr-DA021594","name":"Chingondo","type":"govt","lat":-13.27878,"lng":33.68392,"district":"Dowa"},{"id":"mhfr-DA021595","name":"Dzalo","type":"govt","lat":-13.27878,"lng":33.68392,"district":"Dowa"},{"id":"mhfr-DA021596","name":"Jonasi","type":"govt","lat":-13.27878,"lng":33.68392,"district":"Dowa"},{"id":"mhfr-DA021597","name":"Manondo","type":"govt","lat":-13.27878,"lng":33.68392,"district":"Dowa"},{"id":"mhfr-DA021598","name":"Mtayafuko","type":"govt","lat":-13.27878,"lng":33.68392,"district":"Dowa"},{"id":"mhfr-DA021599","name":"Tchawale","type":"govt","lat":-13.27878,"lng":33.68392,"district":"Dowa"},{"id":"mhfr-KU071600","name":"Chanthunthu","type":"govt","lat":-13.29403,"lng":33.53859,"district":"Kasungu"},{"id":"mhfr-KU071601","name":"Chima","type":"govt","lat":-13.29403,"lng":33.53859,"district":"Kasungu"},{"id":"mhfr-KU071602","name":"Kadifula","type":"govt","lat":-13.29403,"lng":33.53859,"district":"Kasungu"},{"id":"mhfr-KU071603","name":"Kamphotola","type":"govt","lat":-13.29403,"lng":33.53859,"district":"Kasungu"},{"id":"mhfr-KU071604","name":"Kaphaizi","type":"cham","lat":-13.29403,"lng":33.53859,"district":"Kasungu"},{"id":"mhfr-KU071605","name":"Liziri","type":"govt","lat":-13.29403,"lng":33.53859,"district":"Kasungu"},{"id":"mhfr-KU071606","name":"Mankhaka","type":"cham","lat":-13.29403,"lng":33.53859,"district":"Kasungu"},{"id":"mhfr-KU071607","name":"Mbongozi","type":"govt","lat":-13.29403,"lng":33.53859,"district":"Kasungu"},{"id":"mhfr-KU071608","name":"Miyowe","type":"govt","lat":-13.29403,"lng":33.53859,"district":"Kasungu"},{"id":"mhfr-KU071609","name":"Mnthumbo","type":"govt","lat":-13.29403,"lng":33.53859,"district":"Kasungu"},{"id":"mhfr-KU071610","name":"Mphomwa","type":"govt","lat":-13.29403,"lng":33.53859,"district":"Kasungu"},{"id":"mhfr-LL041611","name":"Chiputu","type":"govt","lat":-13.95473,"lng":33.7793,"district":"Lilongwe"},{"id":"mhfr-LL041612","name":"Kandiyani","type":"govt","lat":-13.95473,"lng":33.7793,"district":"Lilongwe"},{"id":"mhfr-LL041613","name":"Kanyerere","type":"govt","lat":-13.95473,"lng":33.7793,"district":"Lilongwe"},{"id":"mhfr-LL041614","name":"Kapudzama","type":"govt","lat":-13.95473,"lng":33.7793,"district":"Lilongwe"},{"id":"mhfr-LL041615","name":"Katenje","type":"govt","lat":-13.95473,"lng":33.7793,"district":"Lilongwe"},{"id":"mhfr-LL041616","name":"Masinja","type":"govt","lat":-13.95473,"lng":33.7793,"district":"Lilongwe"},{"id":"mhfr-LL041617","name":"Mthang'ombe","type":"govt","lat":-13.95473,"lng":33.7793,"district":"Lilongwe"},{"id":"mhfr-LL041618","name":"Nyanda","type":"govt","lat":-13.95473,"lng":33.7793,"district":"Lilongwe"},{"id":"mhfr-LL041619","name":"Sese","type":"govt","lat":-13.95473,"lng":33.7793,"district":"Lilongwe"},{"id":"mhfr-LL041620","name":"St. Chavala","type":"cham","lat":-13.95473,"lng":33.7793,"district":"Lilongwe"},{"id":"mhfr-LL041621","name":"Zabira","type":"govt","lat":-13.95473,"lng":33.7793,"district":"Lilongwe"},{"id":"mhfr-LL041622","name":"Zabira","type":"govt","lat":-13.95473,"lng":33.7793,"district":"Lilongwe"},{"id":"mhfr-MC191623","name":"Chipamba","type":"govt","lat":-14.7655,"lng":35.66691,"district":"Machinga"},{"id":"mhfr-MG201624","name":"Lupetere","type":"govt","lat":-14.48,"lng":35.26,"district":"Mangochi"},{"id":"mhfr-MG201625","name":"Makoli","type":"govt","lat":-14.4434386,"lng":35.341996,"district":"Mangochi"},{"id":"mhfr-MG201626","name":"Nalikolo","type":"govt","lat":-14.48,"lng":35.26,"district":"Mangochi"},{"id":"mhfr-MC011628","name":"Border Wellness Centre","type":"govt","lat":-13.79508,"lng":32.89221,"district":"Mchinji"},{"id":"mhfr-MC011629","name":"Kamchere","type":"govt","lat":-13.79508,"lng":32.89221,"district":"Mchinji"},{"id":"mhfr-MC011630","name":"Kanyanda","type":"govt","lat":-13.79508,"lng":32.89221,"district":"Mchinji"},{"id":"mhfr-MC011633","name":"Matutu","type":"govt","lat":-13.79508,"lng":32.89221,"district":"Mchinji"},{"id":"mhfr-MC011634","name":"Sunama","type":"govt","lat":-13.79508,"lng":32.89221,"district":"Mchinji"},{"id":"mhfr-MC011635","name":"Tongozara","type":"govt","lat":-13.79508,"lng":32.89221,"district":"Mchinji"},{"id":"mhfr-MW281636","name":"Chimbwinda","type":"govt","lat":-15.59747,"lng":34.51505,"district":"Mwanza"},{"id":"mhfr-MW281637","name":"Chimlango","type":"govt","lat":-15.59747,"lng":34.51505,"district":"Mwanza"},{"id":"mhfr-MW281638","name":"Chimweta","type":"govt","lat":-15.59747,"lng":34.51505,"district":"Mwanza"},{"id":"mhfr-MW281639","name":"Galafa","type":"govt","lat":-15.59747,"lng":34.51505,"district":"Mwanza"},{"id":"mhfr-MW281640","name":"Gunde","type":"govt","lat":-15.59747,"lng":34.51505,"district":"Mwanza"},{"id":"mhfr-MW281641","name":"Kalanga","type":"govt","lat":-15.59747,"lng":34.51505,"district":"Mwanza"},{"id":"mhfr-MW281642","name":"Kapiseni","type":"govt","lat":-15.59747,"lng":34.51505,"district":"Mwanza"},{"id":"mhfr-MW281643","name":"Samu","type":"govt","lat":-15.59747,"lng":34.51505,"district":"Mwanza"},{"id":"mhfr-MW281644","name":"Samu","type":"govt","lat":-15.59747,"lng":34.51505,"district":"Mwanza"},{"id":"mhfr-MW281645","name":"Thambala","type":"govt","lat":-15.59747,"lng":34.51505,"district":"Mwanza"},{"id":"mhfr-MZ161646","name":"Chaboli","type":"govt","lat":-11.6781,"lng":33.44798,"district":"Mzimba"},{"id":"mhfr-MZ161647","name":"Chasefu","type":"govt","lat":-11.6781,"lng":33.44798,"district":"Mzimba"},{"id":"mhfr-MZ161648","name":"Chikwa","type":"govt","lat":-11.6781,"lng":33.44798,"district":"Mzimba"},{"id":"mhfr-MZ161649","name":"Dimi","type":"govt","lat":-11.6781,"lng":33.44798,"district":"Mzimba"},{"id":"mhfr-MZ161650","name":"Emthuzini","type":"govt","lat":-11.6781,"lng":33.44798,"district":"Mzimba"},{"id":"mhfr-MZ161651","name":"Jandalala","type":"govt","lat":-11.6781,"lng":33.44798,"district":"Mzimba"},{"id":"mhfr-MZ161652","name":"Kajorwe","type":"cham","lat":-11.6781,"lng":33.44798,"district":"Mzimba"},{"id":"mhfr-MZ161653","name":"Kakombwe","type":"govt","lat":-11.6781,"lng":33.44798,"district":"Mzimba"},{"id":"mhfr-MZ161654","name":"Kaluwe","type":"govt","lat":-11.6781,"lng":33.44798,"district":"Mzimba"},{"id":"mhfr-MZ161655","name":"Kalweya","type":"govt","lat":-11.6781,"lng":33.44798,"district":"Mzimba"},{"id":"mhfr-MZ161656","name":"Kasenga","type":"govt","lat":-11.6781,"lng":33.44798,"district":"Mzimba"},{"id":"mhfr-MZ161657","name":"Lukwelukwe","type":"govt","lat":-11.6781,"lng":33.44798,"district":"Mzimba"},{"id":"mhfr-MZ161658","name":"Machecheta","type":"govt","lat":-11.6781,"lng":33.44798,"district":"Mzimba"},{"id":"mhfr-MZ161659","name":"Malinyete","type":"govt","lat":-11.6781,"lng":33.44798,"district":"Mzimba"},{"id":"mhfr-MZ161660","name":"Mkwangwali","type":"govt","lat":-11.6781,"lng":33.44798,"district":"Mzimba"},{"id":"mhfr-MZ161661","name":"Mtuzuzu","type":"govt","lat":-11.6781,"lng":33.44798,"district":"Mzimba"},{"id":"mhfr-MZ161662","name":"Mzoma","type":"govt","lat":-11.6781,"lng":33.44798,"district":"Mzimba"},{"id":"mhfr-MZ161663","name":"Phembe","type":"govt","lat":-12.54903193,"lng":33.51304244,"district":"Mzimba"},{"id":"mhfr-MZ161664","name":"Tangatanga","type":"govt","lat":-11.6781,"lng":33.44798,"district":"Mzimba"},{"id":"mhfr-MZ161665","name":"Zowe","type":"govt","lat":-11.6781,"lng":33.44798,"district":"Mzimba"},{"id":"mhfr-NE291666","name":"Binje","type":"govt","lat":-15.59825,"lng":34.69892,"district":"Neno"},{"id":"mhfr-NE291667","name":"Chawe","type":"govt","lat":-15.59825,"lng":34.69892,"district":"Neno"},{"id":"mhfr-NE291668","name":"Feremu","type":"govt","lat":-15.59825,"lng":34.69892,"district":"Neno"},{"id":"mhfr-NE291669","name":"Gonthi","type":"govt","lat":-15.59825,"lng":34.69892,"district":"Neno"},{"id":"mhfr-NE291670","name":"Kam'mwamba","type":"govt","lat":-15.59825,"lng":34.69892,"district":"Neno"},{"id":"mhfr-NE291671","name":"Mbemba","type":"govt","lat":-15.59825,"lng":34.69892,"district":"Neno"},{"id":"mhfr-NE291672","name":"Mwetang'ombe","type":"govt","lat":-15.59825,"lng":34.69892,"district":"Neno"},{"id":"mhfr-NE291673","name":"Nsenjere","type":"govt","lat":-15.59825,"lng":34.69892,"district":"Neno"},{"id":"mhfr-NE291674","name":"Ntanja","type":"govt","lat":-15.59825,"lng":34.69892,"district":"Neno"},{"id":"mhfr-KB051675","name":"Chituka","type":"govt","lat":-11.22268,"lng":34.12324,"district":"Nkhata Bay"},{"id":"mhfr-KB051676","name":"Makumbo","type":"govt","lat":-11.22268,"lng":34.12324,"district":"Nkhata Bay"},{"id":"mhfr-KB051677","name":"Mazamba","type":"govt","lat":-11.22268,"lng":34.12324,"district":"Nkhata Bay"},{"id":"mhfr-NT081679","name":"Chafumbwa","type":"govt","lat":-13.26166,"lng":33.86851,"district":"Ntchisi"},{"id":"mhfr-NT081680","name":"Chanjoka","type":"govt","lat":-13.26166,"lng":33.86851,"district":"Ntchisi"},{"id":"mhfr-NT081681","name":"Chazim'bobo","type":"govt","lat":-13.26166,"lng":33.86851,"district":"Ntchisi"},{"id":"mhfr-NT081682","name":"Mndimba","type":"govt","lat":-13.26166,"lng":33.86851,"district":"Ntchisi"},{"id":"mhfr-NT081683","name":"Mthiransembe","type":"govt","lat":-13.26166,"lng":33.86851,"district":"Ntchisi"},{"id":"mhfr-NT081684","name":"Namdzomba","type":"govt","lat":-13.26166,"lng":33.86851,"district":"Ntchisi"},{"id":"mhfr-NT081685","name":"Ndendere","type":"govt","lat":-13.26166,"lng":33.86851,"district":"Ntchisi"},{"id":"mhfr-NT081686","name":"Njakwa","type":"govt","lat":-13.26166,"lng":33.86851,"district":"Ntchisi"},{"id":"mhfr-NT081687","name":"Nyanga","type":"govt","lat":-13.26166,"lng":33.86851,"district":"Ntchisi"},{"id":"mhfr-RU141688","name":"Bembe","type":"govt","lat":-10.76924,"lng":33.55751,"district":"Rumphi"},{"id":"mhfr-RU141689","name":"Chaguwu","type":"govt","lat":-10.76924,"lng":33.55751,"district":"Rumphi"},{"id":"mhfr-RU141690","name":"Chakaka","type":"govt","lat":-10.76924,"lng":33.55751,"district":"Rumphi"},{"id":"mhfr-RU141691","name":"Junju","type":"govt","lat":-10.76924,"lng":33.55751,"district":"Rumphi"},{"id":"mhfr-RU141692","name":"Kanyerere","type":"govt","lat":-10.76924,"lng":33.55751,"district":"Rumphi"},{"id":"mhfr-RU141693","name":"Kasenga","type":"govt","lat":-10.76924,"lng":33.55751,"district":"Rumphi"},{"id":"mhfr-RU141694","name":"Mala","type":"govt","lat":-10.76924,"lng":33.55751,"district":"Rumphi"},{"id":"mhfr-RU141695","name":"Mjuma","type":"govt","lat":-10.76924,"lng":33.55751,"district":"Rumphi"},{"id":"mhfr-RU141696","name":"Mweyeye","type":"govt","lat":-10.76924,"lng":33.55751,"district":"Rumphi"},{"id":"mhfr-RU141697","name":"Nkhombwa","type":"govt","lat":-10.76924,"lng":33.55751,"district":"Rumphi"},{"id":"mhfr-SA091698","name":"Hope","type":"govt","lat":-13.77065,"lng":34.44174,"district":"Salima"},{"id":"mhfr-SA091699","name":"Mnema","type":"govt","lat":-13.77065,"lng":34.44174,"district":"Salima"},{"id":"mhfr-ZA231700","name":"Chuluchosema","type":"cham","lat":-15.46571,"lng":35.51662,"district":"Zomba"},{"id":"mhfr-ZA231704","name":"Khanda","type":"govt","lat":-15.5566963,"lng":35.8193749,"district":"Zomba"},{"id":"mhfr-ZA231705","name":"Makina","type":"govt","lat":-15.46571,"lng":35.51662,"district":"Zomba"},{"id":"mhfr-ZA231706","name":"Sitima","type":"govt","lat":-15.46571,"lng":35.51662,"district":"Zomba"},{"id":"mhfr-CP061707","name":"Kasitu","type":"govt","lat":-9.692779352612403,"lng":33.36424421519302,"district":"Chitipa"},{"id":"mhfr-DE031708","name":"Magomero","type":"govt","lat":-14.379705656858967,"lng":34.30903158350527,"district":"Dedza"},{"id":"mhfr-MG201709","name":"St. Mary's","type":"cham","lat":-14.5422193,"lng":35.1821163,"district":"Mangochi"},{"id":"mhfr-RU141710","name":"Luviri","type":"govt","lat":-11.024453289888157,"lng":33.864226735549565,"district":"Rumphi"},{"id":"mhfr-MC011711","name":"Mzama ","type":"govt","lat":-14.133071806604791,"lng":33.40829109324171,"district":"Mchinji"},{"id":"mhfr-MC011712","name":"Mzenga ","type":"govt","lat":-13.743748650534775,"lng":32.93412448508285,"district":"Mchinji"},{"id":"mhfr-MC011713","name":"Santhe ","type":"govt","lat":-13.652971954574452,"lng":32.898647842615446,"district":"Mchinji"},{"id":"mhfr-MU211714","name":"Chimbalanga","type":"govt","lat":-16.064451792859167,"lng":35.465792448442826,"district":"Mulanje"},{"id":"mhfr-DA021715","name":"Nambuma","type":"govt","lat":-13.60146450336226,"lng":33.95193377297202,"district":"Dowa"},{"id":"mhfr-RU141719","name":"Kasenga","type":"govt","lat":-11.172298549697244,"lng":33.823414679660566,"district":"Rumphi"},{"id":"mhfr-MW281720","name":"Mwanza Boarder Clinic","type":"govt","lat":-15.798897721007064,"lng":35.35815763425415,"district":"Mwanza"},{"id":"mhfr-MW281722","name":"Mwanza Border Clinic","type":"govt","lat":-15.634362732652159,"lng":35.46692835248617,"district":"Mwanza"},{"id":"mhfr-ZA231723","name":"Chuluchosema","type":"cham","lat":-15.4429457,"lng":35.3669177,"district":"Zomba"},{"id":"mhfr-ZA231724","name":"Sitima","type":"cham","lat":-15.4117893,"lng":35.4436095,"district":"Zomba"},{"id":"mhfr-NT121726","name":"Livulezi Health Centre","type":"cham","lat":-14.851769215350997,"lng":34.74434966097201,"district":"Ntcheu"},{"id":"mhfr-CK271727","name":"Mindanti","type":"cham","lat":-16.0791,"lng":34.568655,"district":"Chikwawa"},{"id":"mhfr-KU071728","name":"St. Denis Health Centre","type":"cham","lat":-12.9953214,"lng":33.3779012,"district":"Kasungu"},{"id":"mhfr-MG201729","name":"Monkeybay DIC-Pakachere","type":"govt","lat":-14.0847423,"lng":34.9128377,"district":"Mangochi"},{"id":"mhfr-MZ161732","name":"Hora","type":"govt","lat":-11.645009,"lng":33.651632,"district":"Mzimba"},{"id":"mhfr-MZ161733","name":"Engalaweni","type":"govt","lat":-11.908296,"lng":33.365893,"district":"Mzimba"},{"id":"mhfr-CK271734","name":"Majete","type":"govt","lat":-15.873873,"lng":34.767251,"district":"Chikwawa"},{"id":"mhfr-CK271735","name":"Majete 6","type":"govt","lat":-16.156663,"lng":34.712992,"district":"Chikwawa"},{"id":"mhfr-CK271737","name":"Majete 3","type":"govt","lat":-16.020747,"lng":34.525114,"district":"Chikwawa"},{"id":"mhfr-LL041747","name":"Nguluwe","type":"govt","lat":-14.0753967,"lng":33.6188717,"district":"Lilongwe"},{"id":"mhfr-DA021750","name":"Chuzu","type":"govt","lat":-13.7293643,"lng":33.8702651,"district":"Dowa"},{"id":"mhfr-DA021751","name":"Mtimaukanena","type":"govt","lat":-13.7457348,"lng":33.8058742,"district":"Dowa"},{"id":"mhfr-DA021752","name":"Chivala","type":"govt","lat":-13.7107599,"lng":33.8063273,"district":"Dowa"},{"id":"mhfr-DA021755","name":"Kasese health center","type":"govt","lat":-13.6,"lng":33.8,"district":"Dowa"},{"id":"mhfr-DA021756","name":"Kawere","type":"govt","lat":-13.5130923,"lng":33.7139905,"district":"Dowa"},{"id":"mhfr-DA021757","name":"Daimoni","type":"govt","lat":-13.6417786,"lng":33.5328729,"district":"Dowa"},{"id":"mhfr-DA021758","name":"Lipiri","type":"govt","lat":-13.5715895,"lng":33.6013386,"district":"Dowa"},{"id":"mhfr-DA021759","name":"Chilima","type":"govt","lat":-13.5719406,"lng":33.7958093,"district":"Dowa"},{"id":"mhfr-DE031765","name":"Tunza Clinic","type":"govt","lat":-14,"lng":33,"district":"Dedza"},{"id":"mhfr-DE031766","name":"St Cornelius","type":"cham","lat":-14.3825698,"lng":34.2963398,"district":"Dedza"},{"id":"mhfr-NT121767","name":"Dochas","type":"cham","lat":-14.9297308,"lng":34.5981342,"district":"Ntcheu"},{"id":"mhfr-NK101784","name":"Nkhotakota Hospita","type":"govt","lat":-12.9242558,"lng":34.2782753,"district":"Nkhotakota"},{"id":"mhfr-MZ161787","name":"Chizani Clinic","type":"govt","lat":-12.50329685,"lng":33.62274169,"district":"Mzimba"},{"id":"mhfr-MC011793","name":"Dumasi Private Clinic","type":"govt","lat":-13.7933738,"lng":32.8936653,"district":"Mchinji"},{"id":"mhfr-KA151796","name":"Songer Border Dispensary","type":"govt","lat":-9.590913,"lng":33.7757792,"district":"Karonga"},{"id":"mhfr-KA151797","name":"Thawiro Dispensary","type":"govt","lat":-15.3581515,"lng":35.5116866,"district":"Karonga"},{"id":"mhfr-MG201801","name":"Megboob hospital","type":"cham","lat":-14.21,"lng":35.1,"district":"Mangochi"},{"id":"mhfr-MG201802","name":"DMI clinic","type":"cham","lat":-14.5470019,"lng":35.178185,"district":"Mangochi"},{"id":"mhfr-MZ161804","name":"Lunjika","type":"govt","lat":-11.764361,"lng":33.685696,"district":"Mzimba"},{"id":"mhfr-SA091805","name":"Chisamba","type":"govt","lat":-13.784275,"lng":34.400132,"district":"Salima"},{"id":"mhfr-MG201806","name":"Kuchinga","type":"cham","lat":-14.359361,"lng":35.530167,"district":"Mangochi"},{"id":"mhfr-KU071807","name":"Kakwale","type":"govt","lat":-12.503054,"lng":33.544323,"district":"Kasungu"},{"id":"mhfr-KB051808","name":"Kwidu","type":"govt","lat":-11.541639,"lng":34.180138,"district":"Nkhata Bay"},{"id":"mhfr-MZ161809","name":"Ekwendeni","type":"govt","lat":-11.369831,"lng":33.882877,"district":"Mzimba"},{"id":"mhfr-BT241811","name":"Bangwe","type":"govt","lat":-15.84015,"lng":35.083595,"district":"Blantyre"},{"id":"mhfr-MZ161812","name":"Katoto","type":"govt","lat":-11.458099,"lng":34.012962,"district":"Mzimba"},{"id":"mhfr-BT241813","name":"Blantyre","type":"govt","lat":-15.455379,"lng":35.116379,"district":"Blantyre"},{"id":"mhfr-BT241814","name":"Blantyre","type":"govt","lat":-15.80401,"lng":35.016811,"district":"Blantyre"},{"id":"mhfr-BT241815","name":"Chirimba","type":"govt","lat":-15.743391,"lng":35.018944,"district":"Blantyre"},{"id":"mhfr-BT241816","name":"COM","type":"govt","lat":-15.80489,"lng":35.005669,"district":"Blantyre"},{"id":"mhfr-MZ161817","name":"Watipa","type":"govt","lat":-11.46048,"lng":34.018162,"district":"Mzimba"},{"id":"mhfr-MZ161818","name":"Zolozolo","type":"govt","lat":-11.44384,"lng":34.02528,"district":"Mzimba"},{"id":"mhfr-MZ161819","name":"Zolozolo","type":"govt","lat":-11.43551,"lng":34.02417,"district":"Mzimba"},{"id":"mhfr-BT241820","name":"Mthunzi-wathu","type":"govt","lat":-15.735082,"lng":35.06031,"district":"Blantyre"},{"id":"mhfr-BT241821","name":"Naperi","type":"govt","lat":-15.810602,"lng":35.013298,"district":"Blantyre"},{"id":"mhfr-BT241823","name":"Sos","type":"govt","lat":-15.72571,"lng":35.05822,"district":"Blantyre"},{"id":"mhfr-CK271826","name":"Nchalo","type":"govt","lat":-16.270485,"lng":34.86367,"district":"Chikwawa"},{"id":"mhfr-CR261827","name":"Malavi","type":"govt","lat":-15.83686,"lng":35.14867,"district":"Chiradzulu"},{"id":"mhfr-NK101828","name":"Mazunga","type":"govt","lat":-12.510015,"lng":34.111526,"district":"Nkhotakota"},{"id":"mhfr-NT081830","name":"St.","type":"govt","lat":-13.149629,"lng":33.839478,"district":"Ntchisi"},{"id":"mhfr-KA151831","name":"Ngerenge","type":"govt","lat":-9.8193669,"lng":33.8281918,"district":"Karonga"},{"id":"mhfr-LL041834","name":"Area","type":"govt","lat":-13.998923,"lng":33.132172,"district":"Lilongwe"},{"id":"mhfr-LL041835","name":"Area","type":"govt","lat":-13.89561,"lng":33.761448,"district":"Lilongwe"},{"id":"mhfr-LL041836","name":"Area","type":"govt","lat":-14.01632,"lng":33.785866,"district":"Lilongwe"},{"id":"mhfr-TH311837","name":"MUST","type":"govt","lat":-15.901806,"lng":35.216888,"district":"Thyolo"},{"id":"mhfr-LL041838","name":"Asha","type":"govt","lat":-13.961618,"lng":33.761932,"district":"Lilongwe"},{"id":"mhfr-ZA231839","name":"Matawale","type":"govt","lat":-15.385289,"lng":35.357662,"district":"Zomba"},{"id":"mhfr-LL041840","name":"Likuni","type":"govt","lat":-14.03051,"lng":33.712784,"district":"Lilongwe"},{"id":"mhfr-LL041841","name":"Lilongwe District Health Office","type":"govt","lat":-13.9927,"lng":33.774879,"district":"Lilongwe"},{"id":"mhfr-LL041843","name":"Biwi","type":"govt","lat":-14.0013,"lng":33.4727,"district":"Lilongwe"},{"id":"mhfr-KU071844","name":"Chambwe","type":"govt","lat":-13.19416667,"lng":33.65666667,"district":"Kasungu"},{"id":"mhfr-KU071845","name":"Kasungu BLM","type":"govt","lat":-13.04628,"lng":33.4791,"district":"Kasungu"},{"id":"mhfr-BK171847","name":"Primary","type":"govt","lat":-15.05602,"lng":35.21495,"district":"Balaka"},{"id":"mhfr-LL041849","name":"Area 25 BLM","type":"govt","lat":-13.89558,"lng":33.76382,"district":"Lilongwe"},{"id":"mhfr-LL041850","name":"Falls BLM","type":"govt","lat":-13.99657,"lng":33.77887,"district":"Lilongwe"},{"id":"mhfr-LL041851","name":"kawale BLM","type":"govt","lat":-13.99154,"lng":33.79512,"district":"Lilongwe"},{"id":"mhfr-LL041852","name":"NRC","type":"govt","lat":-14.0007,"lng":33.394199,"district":"Lilongwe"},{"id":"mhfr-ZA231854","name":"Zomba Airbase Clinic","type":"govt","lat":-15.388428,"lng":35.384308,"district":"Zomba"},{"id":"mhfr-MC191855","name":"Machinga DIC","type":"govt","lat":-15.062584,"lng":35.22348,"district":"Machinga"},{"id":"mhfr-MC191856","name":"Ntaja DIC","type":"govt","lat":-14.867734,"lng":35.532791,"district":"Machinga"},{"id":"mhfr-MG201858","name":"Mangochi DIC 2","type":"govt","lat":-14.480145,"lng":35.266258,"district":"Mangochi"},{"id":"mhfr-MG201860","name":"Mbalama","type":"govt","lat":-14.71431,"lng":35.498909,"district":"Mangochi"},{"id":"mhfr-MC011862","name":"Funuel","type":"govt","lat":-13.50413,"lng":33.03624,"district":"Mchinji"},{"id":"mhfr-MC011863","name":"Home of Hope","type":"govt","lat":-13.715006,"lng":32.900158,"district":"Mchinji"},{"id":"mhfr-MC011864","name":"Mchinji","type":"govt","lat":-13.794971,"lng":32.892204,"district":"Mchinji"},{"id":"mhfr-MC011865","name":"Mchinji","type":"govt","lat":-13.753247,"lng":32.799061,"district":"Mchinji"},{"id":"mhfr-BT241884","name":"Nancholi","type":"govt","lat":-15.827409,"lng":34.969353,"district":"Blantyre"},{"id":"mhfr-NT081885","name":"Malindi","type":"govt","lat":-13.395518,"lng":34.208982,"district":"Ntchisi"},{"id":"mhfr-NT081886","name":"Chandawe","type":"govt","lat":-13.228351,"lng":33.882811,"district":"Ntchisi"},{"id":"mhfr-MC011907","name":"Nafuse Health Centre","type":"govt","lat":-13.814322091077559,"lng":33.15905277554406,"district":"Mchinji"},{"id":"mhfr-SA091908","name":"Pemba Health Centre","type":"govt","lat":-13.76214,"lng":34.42199,"district":"Salima"},{"id":"mhfr-MC011909","name":"Mphelero Health Centre","type":"govt","lat":-13.80273,"lng":32.88716,"district":"Mchinji"},{"id":"mhfr-SA091910","name":"Hope Clinic","type":"govt","lat":-13.76214,"lng":34.42199,"district":"Salima"},{"id":"mhfr-ZA231912","name":"Machilitso Health Centre","type":"cham","lat":-15.451539,"lng":35.407192,"district":"Zomba"},{"id":"mhfr-TH311915","name":"Lomola","type":"govt","lat":-16.10158,"lng":35.287508,"district":"Thyolo"},{"id":"mhfr-TH311916","name":"Thowela","type":"govt","lat":-16.030848,"lng":35.2750725,"district":"Thyolo"},{"id":"mhfr-BT241917","name":"Klaus","type":"govt","lat":-15.66774,"lng":35.09414,"district":"Blantyre"},{"id":"mhfr-SA091918","name":"Chifundo Health Centre","type":"govt","lat":-13.59695,"lng":34.31111,"district":"Salima"},{"id":"mhfr-KU071925","name":"Kapichira","type":"govt","lat":-12.899257,"lng":33.935962,"district":"Kasungu"},{"id":"mhfr-NT121930","name":"Mlangeni Police Dispensary","type":"govt","lat":-14.614559,"lng":34.541589,"district":"Ntcheu"},{"id":"mhfr-MC191932","name":"Chaone","type":"cham","lat":-15.125573,"lng":35.424026,"district":"Machinga"},{"id":"mhfr-BT241933","name":"Butterfly Child Care","type":"govt","lat":-14,"lng":34,"district":"Blantyre"},{"id":"mhfr-BK171935","name":"Khwisa Community Hospital","type":"govt","lat":-14.8965465,"lng":34.9464315,"district":"Balaka"},{"id":"mhfr-DE031936","name":"Wellness Centre","type":"govt","lat":-14.400375,"lng":34.325702,"district":"Dedza"},{"id":"mhfr-DA021938","name":"Wandikweza","type":"govt","lat":-13.435191,"lng":33.617826,"district":"Dowa"},{"id":"mhfr-DA021939","name":"Grace","type":"cham","lat":-13.762986,"lng":34.208915,"district":"Dowa"}]